[{"lat":-37.096508,"lng":-72.389328,"nombre":"Parque Fotovoltaico Monte Águila","estado":"En Construcción","tech":"Solar fotovoltaica","region":"Biobío","mw":240,"segmento":"Utility Scale","almac":"Sí","year":2026},{"lat":-32.82103,"lng":-70.635928,"nombre":"Juncal Solar","estado":"En Construcción","tech":"Solar fotovoltaica","region":"Valparaíso","mw":9,"segmento":"PMGD","almac":"Sí","year":2026},{"lat":-32.628538,"lng":-71.011943,"nombre":"Sistema de Generación Solar Fotovoltaica Loma Verde","estado":"En Calificación","tech":"Solar fotovoltaica","region":"Valparaíso","mw":90,"segmento":"Utility Scale","almac":"Sí","year":2026},{"lat":-35.692451,"lng":-71.497413,"nombre":"Planta fotovoltaica Semilleros","estado":"Aprobado","tech":"Solar fotovoltaica","region":"Maule","mw":9,"segmento":"PMGD","almac":"Sí","year":2026},{"lat":-33.947902,"lng":-71.714368,"nombre":"Parque Eólico Las Lilas","estado":"En Calificación","tech":"Eólica","region":"Biobío","mw":240,"segmento":"Utility Scale","almac":"Sí","year":2026},{"lat":-35.367333,"lng":-71.5918,"nombre":"Proyecto Sistema de Almacenamiento de Energía (BESS), en Subestación Eléctrica Panguilemo, Ríos de Mérida","estado":"En Calificación","tech":"BESS","region":"Maule","mw":50,"segmento":"Utility Scale","almac":"Sí","year":2026},{"lat":-24.017574,"lng":-68.586392,"nombre":"Andes III (Etapa 1)","estado":"En Operación","tech":"Solar fotovoltaica","region":"Antofagasta","mw":175.9,"segmento":"Utility Scale","almac":"Sí","year":2026},{"lat":-37.74272,"lng":-72.218556,"nombre":"Parque Solar Altair","estado":"En Construcción","tech":"Solar fotovoltaica","region":"Biobío","mw":9,"segmento":"PMGD","almac":"No","year":2026},{"lat":-30,"lng":-71,"nombre":"Central Fotovoltaica Sol de Oro","estado":"Aprobado","tech":"Solar fotovoltaica","region":"Coquimbo","mw":7,"segmento":"PMGD","almac":"Sí","year":2026},{"lat":-34.207374,"lng":-70.870335,"nombre":"Planta Solar El Milagro","estado":"En Construcción","tech":"Solar fotovoltaica","region":"OHiggins","mw":6,"segmento":"PMGD","almac":"Sí","year":2026},{"lat":-32.773828,"lng":-70.813261,"nombre":"Parque Fotovoltaico Cronos Solar","estado":"En Construcción","tech":"Solar fotovoltaica","region":"Valparaíso","mw":4.2,"segmento":"PMGD","almac":"Sí","year":2026},{"lat":-30.746588,"lng":-70.929251,"nombre":"Planta Solar Monte Patria III","estado":"En Calificación","tech":"Solar fotovoltaica","region":"Coquimbo","mw":9,"segmento":"PMGD","almac":"Sí","year":2026},{"lat":-37.157769,"lng":-72.340851,"nombre":"Parque Fotovoltaico Pillancó","estado":"Aprobado","tech":"Solar fotovoltaica","region":"Biobío","mw":208,"segmento":"Utility Scale","almac":"Sí","year":2026},{"lat":-30.60473,"lng":-70.923965,"nombre":"Ampliación y Modificaciones Parque Fotovoltaico Soles del Norte","estado":"En Calificación","tech":"Solar fotovoltaica","region":"Coquimbo","mw":200,"segmento":"Utility Scale","almac":"Sí","year":2026},{"lat":-35.539635,"lng":-71.517314,"nombre":"Parque fotovoltaico El colorado","estado":"En Calificación","tech":"Solar fotovoltaica","region":"Maule","mw":114,"segmento":"Utility Scale","almac":"Sí","year":2026},{"lat":-27.532534,"lng":-70.067031,"nombre":"Modificación Planta Solar Fotovoltaica Tres Cruces","estado":"En Calificación","tech":"Solar fotovoltaica","region":"Atacama","mw":150,"segmento":"Utility Scale","almac":"Sí","year":2026},{"lat":-20.271281,"lng":-69.757724,"nombre":"Pampa Solar del Tamarugal","estado":"En Construcción","tech":"Solar fotovoltaica","region":"Tarapacá","mw":120,"segmento":"Utility Scale","almac":"Sí","year":2026},{"lat":-45.52483,"lng":-72.105119,"nombre":"Ampliación Parque Eólico Alto Baguales","estado":"En Construcción","tech":"Eólica","region":"Aysén","mw":15,"segmento":"Utility Scale","almac":"No","year":2026},{"lat":-33.310909,"lng":-70.797505,"nombre":"Parque Fotovoltaico Matilde Solar","estado":"En Construcción","tech":"Solar fotovoltaica","region":"Metropolitana","mw":9,"segmento":"PMGD","almac":"Sí","year":2026},{"lat":-30.60473,"lng":-70.923965,"nombre":"Central Fotovoltaica Sol de La Virgen","estado":"Aprobado","tech":"Solar fotovoltaica","region":"Coquimbo","mw":6.2,"segmento":"PMGD","almac":"Sí","year":2026},{"lat":-33.479696,"lng":-70.660866,"nombre":"Sistema de Almacenamiento de Energía Bess Paicaví","estado":"Aprobado","tech":"BESS","region":"Metropolitana","mw":150,"segmento":"Utility Scale","almac":"Sí","year":2026},{"lat":-27.532534,"lng":-70.067031,"nombre":"Delva Subestación, Transmisión y Almacenamiento","estado":"En Calificación","tech":"BESS","region":"Atacama","mw":440,"segmento":"Utility Scale","almac":"Sí","year":2026},{"lat":-29.142544,"lng":-70.893699,"nombre":"Parque Fotovoltaico Los Rastrojos","estado":"En Construcción","tech":"Solar fotovoltaica","region":"Coquimbo","mw":141,"segmento":"Utility Scale","almac":"Sí","year":2026},{"lat":-40.638725,"lng":-73.184193,"nombre":"Parque Fotovoltaico Caipulli","estado":"En Construcción","tech":"Solar fotovoltaica","region":"Los Lagos","mw":9,"segmento":"PMGD","almac":"Sí","year":2026},{"lat":-32.917769,"lng":-71.258467,"nombre":"Parque Solar La Esmeralda","estado":"En Construcción","tech":"Solar fotovoltaica","region":"Valparaíso","mw":9,"segmento":"PMGD","almac":"Sí","year":2026},{"lat":-32.810066,"lng":-70.932562,"nombre":"Ana Solar","estado":"En Construcción","tech":"Solar fotovoltaica","region":"Valparaíso","mw":7.3,"segmento":"PMGD","almac":"Sí","year":2026},{"lat":-52.85313,"lng":-70.955926,"nombre":"Parque Eólico Faro del Sur","estado":"Aprobado","tech":"Eólica + H2","region":"Magallanes","mw":384,"segmento":"Utility Scale","almac":"No","year":2026},{"lat":-28.510991,"lng":-70.918902,"nombre":"Sistema de Almacenamiento de Energia y Linea de Transmision BESS Chaguales","estado":"Aprobado","tech":"BESS","region":"Atacama","mw":80,"segmento":"Utility Scale","almac":"Sí","year":2026},{"lat":-32.628538,"lng":-71.011943,"nombre":"Central Fotovoltaica Sol del Melón","estado":"Aprobado","tech":"Solar fotovoltaica","region":"Valparaíso","mw":9,"segmento":"PMGD","almac":"Sí","year":2026},{"lat":-18.477321,"lng":-70.263418,"nombre":"Sistema de Almacenamiento de Energía BESS Chungará","estado":"Aprobado","tech":"BESS","region":"Arica y Parinacota","mw":50,"segmento":"Utility Scale","almac":"Sí","year":2026},{"lat":-34.477841,"lng":-71.099834,"nombre":"Parque Fotovoltaico Layla del Verano","estado":"Aprobado","tech":"Solar fotovoltaica","region":"OHiggins","mw":83,"segmento":"Utility Scale","almac":"Sí","year":2026},{"lat":-30.60473,"lng":-70.923965,"nombre":"Sistema de Almacenamiento de Energía Eléctrica BESS Los Ñisñiles","estado":"En Calificación","tech":"BESS","region":"Coquimbo","mw":90,"segmento":"Utility Scale","almac":"Sí","year":2026},{"lat":-20.319306,"lng":-70.049722,"nombre":"Parque Fotovoltaico con Capacidad de Almacenamiento Minerva","estado":"Aprobado","tech":"Solar fotovoltaica","region":"Tarapacá","mw":9,"segmento":"PMGD","almac":"Sí","year":2026},{"lat":-37.523017,"lng":-72.386351,"nombre":"Parque Fotovoltaico Inambú","estado":"En Calificación","tech":"Solar fotovoltaica","region":"Biobío","mw":21,"segmento":"Utility Scale","almac":"Sí","year":2026},{"lat":-26.260165,"lng":-69.984927,"nombre":"Sistema de Almacenamiento de Energía BESS Amanecer","estado":"En Calificación","tech":"BESS","region":"Atacama","mw":400,"segmento":"Utility Scale","almac":"Sí","year":2025},{"lat":-41.400703,"lng":-73.82395,"nombre":"Parque Eólico Mirador del Sur","estado":"En Calificación","tech":"Eólica","region":"Los Lagos","mw":320,"segmento":"Utility Scale","almac":"No","year":2025},{"lat":-41.063775,"lng":-73.09892,"nombre":"Sistema de almacenamiento de energía por baterías BESS El Molino","estado":"Aprobado","tech":"BESS","region":"Los Lagos","mw":300,"segmento":"Utility Scale","almac":"Sí","year":2025},{"lat":-34.831074,"lng":-71.116821,"nombre":"Parque Fotovoltaico Planchón","estado":"En Construcción","tech":"Solar fotovoltaica","region":"Maule","mw":75,"segmento":"Utility Scale","almac":"Sí","year":2025},{"lat":-22.394822,"lng":-69.588171,"nombre":"Parque Fotovoltaico y Línea de Transmisión para el Abastecimiento de Instalaciones SQM","estado":"En Calificación","tech":"Solar fotovoltaica","region":"Antofagasta","mw":20,"segmento":"Utility Scale","almac":"Sí","year":2025},{"lat":-34.25988,"lng":-70.850308,"nombre":"PFV Juan Gonzalo Solar","estado":"En Construcción","tech":"Solar fotovoltaica","region":"OHiggins","mw":9,"segmento":"PMGD","almac":"Sí","year":2025},{"lat":-34.3159,"lng":-70.7514,"nombre":"PFV Lilium (Ex Lirios de Chumaquito)","estado":"En Operación","tech":"Solar fotovoltaica","region":"OHiggins","mw":9,"segmento":"PMGD","almac":"No","year":2025},{"lat":-33.32146,"lng":-70.78974,"nombre":"Parque Fotovoltaico Isidora Solar","estado":"En Construcción","tech":"Solar fotovoltaica","region":"Metropolitana","mw":9,"segmento":"PMGD","almac":"Sí","year":2025},{"lat":-41.198025,"lng":-73.101471,"nombre":"Parque Eólico Trumao","estado":"En Calificación","tech":"Eólica","region":"Los Lagos","mw":320,"segmento":"Utility Scale","almac":"Sí","year":2025},{"lat":-27.000829,"lng":-69.874954,"nombre":"Línea de Transmisión y Central BESS Lena","estado":"Aprobado","tech":"BESS","region":"Atacama","mw":300,"segmento":"Utility Scale","almac":"Sí","year":2025},{"lat":-27.362324,"lng":-70.201677,"nombre":"Línea de transmisión y Central BESS Mila","estado":"Aprobado","tech":"BESS","region":"Atacama","mw":150,"segmento":"Utility Scale","almac":"Sí","year":2025},{"lat":-23.445136,"lng":-69.073997,"nombre":"Parque Fotovoltaico Ckoirama Solar","estado":"En Calificación","tech":"Solar fotovoltaica","region":"Antofagasta","mw":300,"segmento":"Utility Scale","almac":"Sí","year":2025},{"lat":-33.479696,"lng":-70.660866,"nombre":"BESS Lo Prado","estado":"En Calificación","tech":"BESS","region":"Metropolitana","mw":508.8,"segmento":"Utility Scale","almac":"Sí","year":2025},{"lat":-34.477841,"lng":-71.099834,"nombre":"Parque Solar Fotovoltaico Agnis","estado":"Aprobado","tech":"Solar fotovoltaica","region":"OHiggins","mw":9,"segmento":"PMGD","almac":"Sí","year":2025},{"lat":-37.630053,"lng":-72.350189,"nombre":"Parque Eólico Junquillos","estado":"Aprobado","tech":"Eólica","region":"Biobío","mw":472.5,"segmento":"Utility Scale","almac":"No","year":2025},{"lat":-33.479696,"lng":-70.660866,"nombre":"Parque Fotovoltaico Don Patricio","estado":"Aprobado","tech":"Solar fotovoltaica","region":"Metropolitana","mw":182,"segmento":"Utility Scale","almac":"Sí","year":2025},{"lat":-33.606355,"lng":-70.483374,"nombre":"Parque Solar Platero","estado":"Aprobado","tech":"Solar fotovoltaica","region":"Metropolitana","mw":7,"segmento":"PMG","almac":"Sí","year":2025},{"lat":-20.783324,"lng":-69.463149,"nombre":"Parque Fotovoltaico Ramaditas","estado":"Aprobado","tech":"Solar fotovoltaica","region":"Tarapacá","mw":360,"segmento":"Utility Scale","almac":"Sí","year":2025},{"lat":-24.031422,"lng":-69.771112,"nombre":"Sistema de Almacenamiento de Energía BESS y Línea de Transmisión - Imilac","estado":"En Calificación","tech":"BESS","region":"Antofagasta","mw":360,"segmento":"Utility Scale","almac":"Sí","year":2025},{"lat":-30.60473,"lng":-70.923965,"nombre":"Sistema de Almacenamiento de Energía (SAE) y Transmisión Puyuhuapi","estado":"En Calificación","tech":"BESS","region":"Coquimbo","mw":40,"segmento":"Utility Scale","almac":"Sí","year":2025},{"lat":-39.928077,"lng":-72.797946,"nombre":"Central Térmica de Respaldo y Parque Fotovoltaico Lipingue","estado":"En Calificación","tech":"Solar fotovoltaica","region":"Los Ríos","mw":9,"segmento":"PMGD","almac":"No","year":2025},{"lat":-20.26528,"lng":-69.422002,"nombre":"Parque Fotovoltaico con Capacidad de Almacenamiento Euclides","estado":"En Calificación","tech":"Solar fotovoltaica","region":"Tarapacá","mw":9,"segmento":"PMGD","almac":"Sí","year":2025},{"lat":-33.27153,"lng":-70.737672,"nombre":"Parque Fotovoltaico Amuleto","estado":"En Construcción","tech":"Solar fotovoltaica","region":"Metropolitana","mw":9,"segmento":"PMGD","almac":"Sí","year":2025},{"lat":-32.72487,"lng":-70.720094,"nombre":"Parque Fotovoltaico Doña Pierina","estado":"En Construcción","tech":"Solar fotovoltaica","region":"Valparaíso","mw":9,"segmento":"PMGD","almac":"Sí","year":2025},{"lat":-30.118451,"lng":-71.225511,"nombre":"Sistema de almacenamiento de energía por baterías BESS Las Cañas","estado":"Aprobado","tech":"BESS","region":"Coquimbo","mw":400,"segmento":"Utility Scale","almac":"Sí","year":2025},{"lat":-35.441623,"lng":-71.346663,"nombre":"Parque Fotovoltaico El Retiro","estado":"En Calificación","tech":"Solar fotovoltaica","region":"Maule","mw":242,"segmento":"Utility Scale","almac":"Sí","year":2025},{"lat":-32.628538,"lng":-71.011943,"nombre":"Ampliación Parque Fotovoltaico Ritoque Solar","estado":"En Calificación","tech":"Solar fotovoltaica","region":"Valparaíso","mw":120,"segmento":"Utility Scale","almac":"No","year":2025},{"lat":-34.345867,"lng":-71.610111,"nombre":"Sistema de Almacenamiento de Energía (SAE) y Transmisión Aucanquilcha","estado":"En Calificación","tech":"BESS","region":"OHiggins","mw":40,"segmento":"Utility Scale","almac":"Sí","year":2025},{"lat":-27.532534,"lng":-70.067031,"nombre":"Planta Fotovoltaica Cayena","estado":"En Calificación","tech":"Solar fotovoltaica","region":"Atacama","mw":7,"segmento":"PMGD","almac":"Sí","year":2025},{"lat":-27.532534,"lng":-70.067031,"nombre":"Parque Fotovoltaico, de almacenamiento y línea de Transmisión Copao, Diego de Almagro","estado":"En Calificación","tech":"Solar fotovoltaica","region":"Atacama","mw":351,"segmento":"Utility Scale","almac":"Sí","year":2025},{"lat":-20.22306,"lng":-69.447532,"nombre":"Parque Fotovoltaico Semillero","estado":"En Calificación","tech":"Solar fotovoltaica","region":"Tarapacá","mw":57,"segmento":"Utility Scale","almac":"Sí","year":2025},{"lat":-18.435506,"lng":-70.269408,"nombre":"Parque Fotovoltaico Yal","estado":"Aprobado","tech":"Solar fotovoltaica","region":"Arica y Parinacota","mw":9,"segmento":"PMGD","almac":"Sí","year":2025},{"lat":-32.628538,"lng":-71.011943,"nombre":"Declaración de Impacto Ambiental: Modificación Proyecto Fotovoltaico de 3MW, SLK CB Nueve SpA","estado":"En Calificación","tech":"Solar fotovoltaica","region":"Valparaíso","mw":0.4,"segmento":"PMGD","almac":"No","year":2025},{"lat":-27.532534,"lng":-70.067031,"nombre":"Parque Fotovoltaico El Pitotoy","estado":"En Calificación","tech":"Solar fotovoltaica","region":"Atacama","mw":100,"segmento":"Utility Scale","almac":"Sí","year":2025},{"lat":-28.179388,"lng":-70.653043,"nombre":"Proyecto Algarrobal 200 MW","estado":"En Construcción","tech":"Solar fotovoltaica","region":"Atacama","mw":200,"segmento":"Utility Scale","almac":"Sí","year":2025},{"lat":-34.366005,"lng":-70.971432,"nombre":"Sistema de Almacenamiento de Energía Dorado","estado":"Aprobado","tech":"BESS","region":"OHiggins","mw":60,"segmento":"Utility Scale","almac":"Sí","year":2025},{"lat":-33.798991,"lng":-70.823921,"nombre":"Parque Solar Alfa","estado":"En Construcción","tech":"Solar fotovoltaica","region":"Metropolitana","mw":5.5,"segmento":"PMGD","almac":"No","year":2025},{"lat":-26.430486,"lng":-70.319184,"nombre":"Concorde (Ex Salar Dos)","estado":"En Operación","tech":"Solar fotovoltaica","region":"Atacama","mw":6,"segmento":"PMGD","almac":"No","year":2025},{"lat":-29.123235,"lng":-70.935824,"nombre":"Sistema de almacenamiento de energía por baterías BESS-Troya","estado":"Aprobado","tech":"BESS","region":"Atacama","mw":200,"segmento":"Utility Scale","almac":"Sí","year":2025},{"lat":-34.043507,"lng":-70.643,"nombre":"Parque Fotovoltaico Kaban","estado":"Aprobado","tech":"Solar fotovoltaica","region":"OHiggins","mw":9,"segmento":"PMGD","almac":"Sí","year":2025},{"lat":-37.674266,"lng":-72.222943,"nombre":"Parque Fotovoltaico Neutrón","estado":"En Calificación","tech":"Solar fotovoltaica","region":"Biobío","mw":9,"segmento":"PMGD","almac":"Sí","year":2025},{"lat":-33.479696,"lng":-70.660866,"nombre":"Parque Fotovoltaico Bruno Solar","estado":"En Calificación","tech":"Solar fotovoltaica","region":"Metropolitana","mw":9,"segmento":"PMGD","almac":"Sí","year":2025},{"lat":-20.244184,"lng":-69.980029,"nombre":"Parque Fotovoltaico con Capacidad de Almacenamiento Pampa Perdiz","estado":"Aprobado","tech":"Solar fotovoltaica","region":"Tarapacá","mw":9,"segmento":"PMGD","almac":"Sí","year":2025},{"lat":-21.431382,"lng":-69.740949,"nombre":"ERNC Tarapacá","estado":"Aprobado","tech":"Solar fotovoltaica + Eólica","region":"Tarapacá","mw":226,"segmento":"Utility Scale","almac":"No","year":2025},{"lat":-30.506242,"lng":-71.114603,"nombre":"Parque Fotovoltaico Hanna","estado":"En Calificación","tech":"Solar fotovoltaica","region":"Coquimbo","mw":9,"segmento":"PMGD","almac":"Sí","year":2025},{"lat":-32.628538,"lng":-71.011943,"nombre":"Planta Fotovoltaica Laurel","estado":"En Calificación","tech":"Solar fotovoltaica","region":"Valparaíso","mw":7,"segmento":"PMGD","almac":"Sí","year":2025},{"lat":-28.828971,"lng":-70.803522,"nombre":"Sistema de Almacenamiento de Energía y Línea de Transmisión Kronos","estado":"En Calificación","tech":"BESS","region":"Atacama","mw":180,"segmento":"Utility Scale","almac":"Sí","year":2025},{"lat":-20.804287,"lng":-69.442524,"nombre":"Parque Fotovoltaico Pampino","estado":"En Calificación","tech":"Solar fotovoltaica","region":"Tarapacá","mw":170,"segmento":"Utility Scale","almac":"Sí","year":2025},{"lat":-22.368904,"lng":-69.601274,"nombre":"CRCA La Pampina","estado":"En Construcción","tech":"Solar fotovoltaica","region":"Antofagasta","mw":159,"segmento":"Utility Scale","almac":"Sí","year":2025},{"lat":-40.147119,"lng":-73.003503,"nombre":"Parque Eólico Ovejera Sur","estado":"Aprobado","tech":"Eólica","region":"Los Ríos","mw":252,"segmento":"Utility Scale","almac":"No","year":2025},{"lat":-25.000001,"lng":-70,"nombre":"Modificación de la Etapa II del Parque Eólico Antofagasta","estado":"Aprobado","tech":"Eólica","region":"Antofagasta","mw":462,"segmento":"Utility Scale","almac":"No","year":2025},{"lat":-29,"lng":-71,"nombre":"Sistema de Almacenamiento de Energía y Línea de Transmisión GAIA","estado":"En Calificación","tech":"BESS","region":"Atacama","mw":200,"segmento":"Utility Scale","almac":"Sí","year":2025},{"lat":-40.786149,"lng":-73.357056,"nombre":"Parque Fotovoltaico Los Maquis","estado":"En Calificación","tech":"Solar fotovoltaica","region":"Los Lagos","mw":9,"segmento":"PMGD","almac":"Sí","year":2025},{"lat":-36.793238,"lng":-72.173678,"nombre":"Proyecto Sistema de Almacenamiento BESS Lucero y Línea de Transmisión 66 kV","estado":"En Calificación","tech":"BESS","region":"Ñuble","mw":95,"segmento":"Utility Scale","almac":"Sí","year":2025},{"lat":-29,"lng":-71,"nombre":"Sistema de Almacenamiento de Energía Águila Andina","estado":"En Calificación","tech":"BESS","region":"Atacama","mw":200,"segmento":"Utility Scale","almac":"Sí","year":2025},{"lat":-28.255629,"lng":-70.82138,"nombre":"Parque Fotovoltaico El Aguilucho","estado":"En Calificación","tech":"Solar fotovoltaica","region":"Atacama","mw":25,"segmento":"Utility Scale","almac":"Sí","year":2025},{"lat":-27,"lng":-70,"nombre":"Parque Fotovoltaico Pimpollo","estado":"En Calificación","tech":"Solar fotovoltaica","region":"Atacama","mw":9,"segmento":"Utility Scale","almac":"Sí","year":2025},{"lat":-27,"lng":-70,"nombre":"Parque Fotovoltaico Peuco","estado":"En Calificación","tech":"Solar fotovoltaica","region":"Atacama","mw":300,"segmento":"Utility Scale","almac":"Sí","year":2025},{"lat":-40.322533,"lng":-73.004039,"nombre":"Sistema de Almacenamiento de Energía y Transmision Apacheta","estado":"En Calificación","tech":"BESS","region":"Los Ríos","mw":40,"segmento":"Utility Scale","almac":"Sí","year":2025},{"lat":-23.445136,"lng":-69.073997,"nombre":"Sistema de Almacenamiento de Energía Águila Mora","estado":"En Calificación","tech":"BESS","region":"Antofagasta","mw":300,"segmento":"Utility Scale","almac":"Sí","year":2025},{"lat":-37,"lng":-72,"nombre":"Parque Fotovoltaico Manquel Solar","estado":"En Calificación","tech":"Solar fotovoltaica","region":"Biobío","mw":65,"segmento":"Utility Scale","almac":"Sí","year":2025},{"lat":-33,"lng":-71,"nombre":"Parque Solar Alvarado","estado":"En Calificación","tech":"Solar fotovoltaica","region":"Metropolitana","mw":9,"segmento":"PMGD","almac":"Sí","year":2025},{"lat":-27.889779,"lng":-70.182885,"nombre":"Copiapó Solar","estado":"En Construcción","tech":"Solar fotovoltaica","region":"Atacama","mw":255,"segmento":"Utility Scale","almac":"Sí","year":2025},{"lat":-28.406881,"lng":-70.773919,"nombre":"Parque Solar Fotovoltaico Tamarico Fase II","estado":"Aprobado","tech":"Solar fotovoltaica","region":"Atacama","mw":159.6,"segmento":"Utility Scale","almac":"Sí","year":2025},{"lat":-40.486189,"lng":-73.123455,"nombre":"Parque Fotovoltaico Chacayal","estado":"En Calificación","tech":"Solar fotovoltaica","region":"Los Lagos","mw":9,"segmento":"PMGD","almac":"Sí","year":2025},{"lat":-32.768496,"lng":-71.17845,"nombre":"PFV Charrabata 2","estado":"En Construcción","tech":"Solar fotovoltaica","region":"Valparaíso","mw":9,"segmento":"PMGD","almac":"Sí","year":2025},{"lat":-22.515559,"lng":-68.943409,"nombre":"PMGD Latorre Sunlight","estado":"En Construcción","tech":"Solar fotovoltaica","region":"Antofagasta","mw":4.9,"segmento":"PMGD","almac":"Sí","year":2025},{"lat":-37,"lng":-72,"nombre":"Parque Eólico Los Coihues","estado":"Aprobado","tech":"Eólica","region":"Ñuble","mw":338.4,"segmento":"Utility Scale","almac":"No","year":2025},{"lat":-34.318069,"lng":-71.743603,"nombre":"Energética Solar Marchihue","estado":"Aprobado","tech":"Solar fotovoltaica","region":"OHiggins","mw":9,"segmento":"PMGD","almac":"Sí","year":2025},{"lat":-35.591158,"lng":-71.709867,"nombre":"Sistema de almacenamiento de energía y transmisión Yate","estado":"Aprobado","tech":"BESS","region":"Maule","mw":40,"segmento":"Utility Scale","almac":"Sí","year":2025},{"lat":-30.592065,"lng":-71.459536,"nombre":"PARQUE FOTOVOLTAICO SOLES DEL NORTE","estado":"Aprobado","tech":"Solar fotovoltaica","region":"Coquimbo","mw":130.5,"segmento":"Utility Scale","almac":"Sí","year":2025},{"lat":-25,"lng":-70,"nombre":"Proyecto Híbrido Solar, Eólico y de Almacenamiento de Energía Llanura Solar","estado":"En Calificación","tech":"Solar fotovoltaica + Eólica","region":"Antofagasta","mw":766.3,"segmento":"Utility Scale","almac":"Sí","year":2025},{"lat":-33.498417,"lng":-70.854662,"nombre":"Parque Fotovoltaico Rinconada Solar","estado":"En Calificación","tech":"Solar fotovoltaica","region":"Metropolitana","mw":300,"segmento":"Utility Scale","almac":"Sí","year":2025},{"lat":-41.393183,"lng":-73.085487,"nombre":"Parque Fotovoltaico El Tepual Norte","estado":"En Calificación","tech":"Solar fotovoltaica","region":"Los Lagos","mw":9,"segmento":"PMGD","almac":"Sí","year":2025},{"lat":-26.376904,"lng":-70.098034,"nombre":"Parque Fotovoltaico Isidora Solar","estado":"En Calificación","tech":"Solar fotovoltaica","region":"Atacama","mw":55,"segmento":"Utility Scale","almac":"Sí","year":2025},{"lat":-24.919634,"lng":-69.932717,"nombre":"Parque Híbrido Pampas","estado":"En Construcción","tech":"Solar fotovoltaica + Eólica","region":"Antofagasta","mw":348,"segmento":"Utility Scale","almac":"Sí","year":2025},{"lat":-28.510199,"lng":-70.752505,"nombre":"Parque Fotovoltaico Corinto Solar","estado":"Aprobado","tech":"Solar fotovoltaica","region":"Atacama","mw":234,"segmento":"Utility Scale","almac":"Sí","year":2025},{"lat":-26.400922,"lng":-70.59395,"nombre":"Sistema de Almacenamiento de Energía Alianza","estado":"Aprobado","tech":"BESS","region":"Atacama","mw":90,"segmento":"Utility Scale","almac":"Sí","year":2025},{"lat":-30.890404,"lng":-71.618146,"nombre":"Punta de Talca","estado":"En Operación","tech":"Eólica","region":"Coquimbo","mw":79.2,"segmento":"Utility Scale","almac":"No","year":2025},{"lat":-34.13732,"lng":-70.690817,"nombre":"PSF BESS Los Quilos","estado":"En Construcción","tech":"Solar fotovoltaica","region":"OHiggins","mw":9,"segmento":"PMGD","almac":"Sí","year":2025},{"lat":-33.68,"lng":-70.53,"nombre":"Parque Solar Fotovoltaico Los Maitenes","estado":"En Pruebas","tech":"Solar fotovoltaica","region":"Metropolitana","mw":5.5,"segmento":"PMGD","almac":"Sí","year":2025},{"lat":-35.136896,"lng":-71.366043,"nombre":"Sistema de Almacenamiento de Energía Altair","estado":"Aprobado","tech":"BESS","region":"Maule","mw":316,"segmento":"Utility Scale","almac":"Sí","year":2025},{"lat":-40.707533,"lng":-72.623718,"nombre":"Sistema de Almacenamiento de Energía y Transmisión Chiliques","estado":"Aprobado","tech":"BESS","region":"Los Lagos","mw":8,"segmento":"Utility Scale","almac":"Sí","year":2025},{"lat":-24.101495,"lng":-68.641686,"nombre":"Parque Fotovoltaico Los Durmientes","estado":"Aprobado","tech":"Solar fotovoltaica","region":"Antofagasta","mw":246.6,"segmento":"Utility Scale","almac":"Sí","year":2025},{"lat":-34,"lng":-71,"nombre":"Línea de Transmisión y Sistema BESS Elara","estado":"En Calificación","tech":"BESS","region":"OHiggins","mw":90,"segmento":"Utility Scale","almac":"Sí","year":2025},{"lat":-32.41588,"lng":-71.342953,"nombre":"Parque Fotovoltaico Venus, El Romeral - Papudo","estado":"En Calificación","tech":"Solar fotovoltaica","region":"Valparaíso","mw":9,"segmento":"PMGD","almac":"Sí","year":2025},{"lat":-21.120926,"lng":-69.47924,"nombre":"Parque Fotovoltaico Llanos del Sol","estado":"Aprobado","tech":"Solar fotovoltaica","region":"Tarapacá","mw":381.8,"segmento":"Utility Scale","almac":"Sí","year":2025},{"lat":-40.211125,"lng":-72.740791,"nombre":"Parque Eólico El Rancho","estado":"En Calificación","tech":"Eólica","region":"Los Ríos","mw":216,"segmento":"Utility Scale","almac":"No","year":2025},{"lat":-28.540199,"lng":-70.832865,"nombre":"Planta Fotovoltaica Perales","estado":"Aprobado","tech":"Solar fotovoltaica","region":"Atacama","mw":8.3,"segmento":"PMGD","almac":"Sí","year":2025},{"lat":-34.47265,"lng":-70.890989,"nombre":"Proyecto Sistema de Almacenamiento de Energía (SAE) Volcán Isluga","estado":"Aprobado","tech":"BESS","region":"OHiggins","mw":40,"segmento":"Utility Scale","almac":"Sí","year":2025},{"lat":-28.159064,"lng":-70.685582,"nombre":"Parque Fotovoltaico Sol de Algarrobal","estado":"En Calificación","tech":"Solar fotovoltaica","region":"Atacama","mw":450,"segmento":"Utility Scale","almac":"Sí","year":2025},{"lat":-35,"lng":-72,"nombre":"Central Fotovoltaica Sol del Felino","estado":"En Calificación","tech":"Solar fotovoltaica","region":"Maule","mw":9,"segmento":"PMGD","almac":"Sí","year":2025},{"lat":-24.101442,"lng":-68.774725,"nombre":"Parque Fotovoltaico Cristales","estado":"En Construcción","tech":"Solar fotovoltaica","region":"Antofagasta","mw":400,"segmento":"Utility Scale","almac":"Sí","year":2025},{"lat":-37.273695,"lng":-72.535858,"nombre":"Parque Eólico Rinconada","estado":"Aprobado","tech":"Eólica","region":"Biobío","mw":258,"segmento":"Utility Scale","almac":"No","year":2025},{"lat":-36.766272,"lng":-72.143058,"nombre":"Parque Solar Aris","estado":"En Construcción","tech":"Solar fotovoltaica","region":"Ñuble","mw":9,"segmento":"PMGD","almac":"No","year":2025},{"lat":-40.103741,"lng":-72.808319,"nombre":"Parque Fotovoltaico Nueva Paillaco","estado":"En Construcción","tech":"Solar fotovoltaica","region":"Los Ríos","mw":4.5,"segmento":"PMGD","almac":"Sí","year":2025},{"lat":-37,"lng":-72,"nombre":"Parque Fotovoltaico Sidon Solar","estado":"En Calificación","tech":"Solar fotovoltaica","region":"Biobío","mw":150,"segmento":"Utility Scale","almac":"Sí","year":2025},{"lat":-41.363115,"lng":-73.574356,"nombre":"Parque Eólico Alto Los Muermos","estado":"En Calificación","tech":"Eólica","region":"Los Lagos","mw":430,"segmento":"Utility Scale","almac":"Sí","year":2025},{"lat":-34,"lng":-71,"nombre":"Parque Fotovoltaico Radal Solar","estado":"En Calificación","tech":"Solar fotovoltaica","region":"Valparaíso","mw":200,"segmento":"Utility Scale","almac":"Sí","year":2025},{"lat":-34,"lng":-72,"nombre":"Parque Solar Portezuelo","estado":"En Calificación","tech":"Solar fotovoltaica","region":"OHiggins","mw":121,"segmento":"Utility Scale","almac":"Sí","year":2025},{"lat":-34.205531,"lng":-70.681282,"nombre":"Parque Solar Sol del Cobre","estado":"Aprobado","tech":"Solar fotovoltaica","region":"OHiggins","mw":9,"segmento":"PMGD","almac":"Sí","year":2025},{"lat":-32.628538,"lng":-71.011943,"nombre":"Parque Fotovoltaico Limachino III","estado":"En Calificación","tech":"Solar fotovoltaica","region":"Valparaíso","mw":9,"segmento":"PMGD","almac":"Sí","year":2025},{"lat":-38.912876,"lng":-71.539252,"nombre":"Minicentral Hidroeléctrica Las Nieves","estado":"En Pruebas","tech":"Mini Hidráulica Pasada","region":"La Araucanía","mw":6.5,"segmento":"Utility Scale","almac":"No","year":2025},{"lat":-41,"lng":-73,"nombre":"Parque Fotovoltaico El Roble Norte","estado":"En Calificación","tech":"Solar fotovoltaica","region":"Los Lagos","mw":9,"segmento":"PMGD","almac":"Sí","year":2025},{"lat":-36,"lng":-72,"nombre":"Planta fotovoltaica Parral","estado":"En Calificación","tech":"Solar fotovoltaica","region":"Maule","mw":9,"segmento":"PMGD","almac":"Sí","year":2025},{"lat":-34.181471,"lng":-70.84143,"nombre":"Sistema de Almacenamiento de Energía Remanso","estado":"En Calificación","tech":"BESS","region":"OHiggins","mw":150,"segmento":"Utility Scale","almac":"Sí","year":2025},{"lat":-36.607945,"lng":-72.047293,"nombre":"Proyecto Planta Solar San Juan","estado":"En Construcción","tech":"Solar fotovoltaica","region":"Ñuble","mw":9,"segmento":"PMGD","almac":"Sí","year":2025},{"lat":-40.92983,"lng":-73.1268,"nombre":"Purranque 2","estado":"En Construcción","tech":"Eólica","region":"Los Lagos","mw":9,"segmento":"PMGD","almac":"No","year":2025},{"lat":-33.839928,"lng":-70.741065,"nombre":"PMGD San Ramón","estado":"En Operación","tech":"Solar fotovoltaica","region":"Metropolitana","mw":9,"segmento":"PMGD","almac":"No","year":2025},{"lat":-38.430246,"lng":-71.901714,"nombre":"Sistema de Almacenamiento de Energía (SAE) Volcán Lanin","estado":"Aprobado","tech":"BESS","region":"La Araucanía","mw":40,"segmento":"Utility Scale","almac":"Sí","year":2025},{"lat":-18.430353,"lng":-70.261531,"nombre":"Parque Fotovoltaico Parina","estado":"Aprobado","tech":"Solar fotovoltaica","region":"Arica y Parinacota","mw":9,"segmento":"Utility Scale","almac":"Sí","year":2025},{"lat":-34,"lng":-71,"nombre":"Parque Fotovoltaico Gabriela Solar","estado":"En Calificación","tech":"Solar fotovoltaica","region":"Metropolitana","mw":9,"segmento":"PMGD","almac":"Sí","year":2025},{"lat":-20.252244,"lng":-69.668388,"nombre":"Sistema de Almacenamiento de Energía y Linea de Transmisión BESS Tambillo","estado":"Aprobado","tech":"BESS","region":"Tarapacá","mw":460,"segmento":"Utility Scale","almac":"Sí","year":2025},{"lat":-32,"lng":-71,"nombre":"PARQUE FOTOVOLTAICO LOS BOLDOS","estado":"En Calificación","tech":"Solar fotovoltaica","region":"Valparaíso","mw":240.8,"segmento":"Utility Scale","almac":"Sí","year":2025},{"lat":-26.999167,"lng":-69.876603,"nombre":"Central Fotovoltaica Inca de Varas II","estado":"Aprobado","tech":"Solar fotovoltaica","region":"Atacama","mw":46.3,"segmento":"Utility Scale","almac":"Sí","year":2025},{"lat":-22.458279,"lng":-68.852662,"nombre":"Parque Fotovoltaico con capacidad de almacenamiento Valle de las Estrellas","estado":"En Calificación","tech":"Solar fotovoltaica","region":"Antofagasta","mw":9,"segmento":"PMGD","almac":"Sí","year":2025},{"lat":-33.075083,"lng":-70.758725,"nombre":"Parque Fotovoltaico y Línea de Transmisión Colachi","estado":"En Calificación","tech":"Solar fotovoltaica","region":"Metropolitana","mw":136.1,"segmento":"Utility Scale","almac":"Sí","year":2025},{"lat":-32.396612,"lng":-71.030398,"nombre":"Parque Fotovoltaico Cabildo Solar","estado":"Aprobado","tech":"Solar fotovoltaica","region":"Valparaíso","mw":50,"segmento":"Utility Scale","almac":"Sí","year":2025},{"lat":-24.941034,"lng":-69.870391,"nombre":"Modificación de proyecto Parque Eólico Horizonte","estado":"Aprobado","tech":"Eólica","region":"Antofagasta","mw":180,"segmento":"Utility Scale","almac":"No","year":2025},{"lat":-25.022091,"lng":-69.908187,"nombre":"Arena BESS","estado":"En Pruebas","tech":"BESS","region":"Antofagasta","mw":220,"segmento":"Utility Scale","almac":"Sí","year":2025},{"lat":-28.82817,"lng":-70.814094,"nombre":"CRCA Luna de Verano","estado":"En Construcción","tech":"Solar fotovoltaica","region":"Atacama","mw":82,"segmento":"Utility Scale","almac":"Sí","year":2025},{"lat":-36.737423,"lng":-72.283499,"nombre":"Parque Fotovoltaico Aura, Bulnes","estado":"En Calificación","tech":"Solar fotovoltaica","region":"Ñuble","mw":9,"segmento":"PMGD","almac":"Sí","year":2025},{"lat":-30.222447,"lng":-71.278486,"nombre":"Parque Fotovoltaico El Peñón","estado":"En Construcción","tech":"Solar fotovoltaica","region":"Coquimbo","mw":9,"segmento":"PMGD","almac":"No","year":2025},{"lat":-37.143075,"lng":-72.155835,"nombre":"Parque Eólico Las Fresias","estado":"En Calificación","tech":"Eólica","region":"Ñuble","mw":310,"segmento":"Utility Scale","almac":"Sí","year":2025},{"lat":-33,"lng":-74,"nombre":"Parque Fotovoltaico Catalina Solar","estado":"En Calificación","tech":"Solar fotovoltaica","region":"Metropolitana","mw":9,"segmento":"PMGD","almac":"Sí","year":2025},{"lat":-36.197367,"lng":-72.396809,"nombre":"Parque Eólico El Sauzal","estado":"En Calificación","tech":"Eólica","region":"Ñuble","mw":360,"segmento":"Utility Scale","almac":"No","year":2025},{"lat":-34.813457,"lng":-71.754239,"nombre":"Planta Fotovoltaica Lolol","estado":"En Calificación","tech":"Solar fotovoltaica","region":"OHiggins","mw":69.8,"segmento":"Utility Scale","almac":"Sí","year":2025},{"lat":-36.316003,"lng":-71.973307,"nombre":"Parque Eólico San Carlos","estado":"Aprobado","tech":"Eólica","region":"Ñuble","mw":187.5,"segmento":"Utility Scale","almac":"Sí","year":2025},{"lat":-35.604011,"lng":-71.78335,"nombre":"Millahue","estado":"En Operación","tech":"Solar fotovoltaica","region":"Maule","mw":9,"segmento":"PMGD","almac":"No","year":2025},{"lat":-33.424714,"lng":-71.050817,"nombre":"Parque Fotovoltaico Chicha Solar","estado":"En Construcción","tech":"Solar fotovoltaica","region":"Metropolitana","mw":9,"segmento":"Utility Scale","almac":"Sí","year":2025},{"lat":-37.555996,"lng":-72.657851,"nombre":"Parque Solar Gamma","estado":"En Construcción","tech":"Solar fotovoltaica","region":"Biobío","mw":8,"segmento":"PMGD","almac":"No","year":2025},{"lat":-38.54094,"lng":-72.46237,"nombre":"Sistema de Almacenamiento de Energía (SAE) Volcán Chaitén","estado":"Aprobado","tech":"BESS","region":"La Araucanía","mw":8,"segmento":"Utility Scale","almac":"Sí","year":2025},{"lat":-32.355198,"lng":-71.305752,"nombre":"Casas Viejas Solar","estado":"Aprobado","tech":"Solar fotovoltaica","region":"Valparaíso","mw":105,"segmento":"Utility Scale","almac":"Sí","year":2025},{"lat":-34.477841,"lng":-71.099834,"nombre":"Parque Fotovoltaico Hacienda Tagua Tagua","estado":"Aprobado","tech":"Solar fotovoltaica","region":"OHiggins","mw":9,"segmento":"PMGD","almac":"Sí","year":2025},{"lat":-24.982937,"lng":-70.0022,"nombre":"Parque Híbrido Eólico y Solar Vientos de Taltal","estado":"En Calificación","tech":"Solar fotovoltaica + Eólica","region":"Antofagasta","mw":539,"segmento":"Utility Scale","almac":"Sí","year":2025},{"lat":-37,"lng":-72,"nombre":"Parque Fotovoltaico Monterrico Solar","estado":"En Calificación","tech":"Solar fotovoltaica","region":"Ñuble","mw":200,"segmento":"Utility Scale","almac":"Sí","year":2025},{"lat":-30.60473,"lng":-70.923965,"nombre":"Sistema de Almacenamiento de Energía Eléctrica Tipo BESS - Camarones","estado":"En Calificación","tech":"BESS","region":"Coquimbo","mw":200,"segmento":"Utility Scale","almac":"Sí","year":2025},{"lat":-31.890346,"lng":-70.83754,"nombre":"Planta de Almacenamiento de Energía BESS HUAÑIL","estado":"Aprobado","tech":"BESS","region":"Coquimbo","mw":200,"segmento":"Utility Scale","almac":"Sí","year":2025},{"lat":-24.801973,"lng":-69.84502,"nombre":"Parque Eólico Pampa Fidelia Etapa 2","estado":"En Construcción","tech":"Eólica","region":"Antofagasta","mw":180,"segmento":"Utility Scale","almac":"Sí","year":2025},{"lat":-36.97453,"lng":-72.145655,"nombre":"Parque Eólico Pemuco","estado":"En Construcción","tech":"Eólica","region":"Ñuble","mw":165,"segmento":"Utility Scale","almac":"No","year":2025},{"lat":-24.801973,"lng":-69.84502,"nombre":"Parque Eólico Pampa Fidelia Etapa 1","estado":"En Pruebas","tech":"Eólica","region":"Antofagasta","mw":126,"segmento":"Utility Scale","almac":"Sí","year":2025},{"lat":-36,"lng":-72,"nombre":"Sistema de Almacenamiento de Energía BESS y Línea de Transmisión El Destello","estado":"Aprobado","tech":"BESS","region":"Ñuble","mw":20,"segmento":"Utility Scale","almac":"Sí","year":2025},{"lat":-33.50425,"lng":-71.550335,"nombre":"Planta Fotovoltaica Monza Solar","estado":"En Construcción","tech":"Solar fotovoltaica","region":"Valparaíso","mw":6.5,"segmento":"PMGD","almac":"Sí","year":2025},{"lat":-40.130883,"lng":-72.860655,"nombre":"Parque Fotovoltaico Pichirropulli","estado":"En Construcción","tech":"Solar fotovoltaica","region":"Los Ríos","mw":6,"segmento":"PMGD","almac":"Sí","year":2025},{"lat":-35.539635,"lng":-71.517314,"nombre":"Parque Fotovoltaico El Coipo Solar","estado":"En Calificación","tech":"Solar fotovoltaica","region":"Maule","mw":120,"segmento":"Utility Scale","almac":"Sí","year":2025},{"lat":-34,"lng":-71,"nombre":"Parque Solar Fotovoltaico Leyda y Sistema de Almacenamiento de Energía con Baterías (BESS)","estado":"En Calificación","tech":"Solar fotovoltaica","region":"Valparaíso","mw":9,"segmento":"PMGD","almac":"Sí","year":2025},{"lat":-36,"lng":-72,"nombre":"Planta Solar El Cardonal","estado":"En Calificación","tech":"Solar fotovoltaica","region":"Maule","mw":5,"segmento":"PMGD","almac":"Sí","year":2025},{"lat":-20.314815,"lng":-69.740848,"nombre":"Sistema de Almacenamiento de Energía (BESS) en Subestación Eléctrica Nueva Pozo Almonte, Ríos de Ondarreta","estado":"Aprobado","tech":"BESS","region":"Tarapacá","mw":125,"segmento":"Utility Scale","almac":"Sí","year":2025},{"lat":-23,"lng":-70,"nombre":"Sistema de Almacenamiento de Energía (BESS) en Subestación Eléctrica Los Changos, Ríos de Ribagorda","estado":"Aprobado","tech":"BESS","region":"Antofagasta","mw":225,"segmento":"Utility Scale","almac":"Sí","year":2025},{"lat":-22.91834,"lng":-69.106775,"nombre":"Sistema de Almacenamiento de Energía (BESS) en Subestación Eléctrica El Tesoro, Ríos de Tudela","estado":"Aprobado","tech":"BESS","region":"Antofagasta","mw":50,"segmento":"Utility Scale","almac":"Sí","year":2025},{"lat":-35.539635,"lng":-71.517314,"nombre":"Parque Fotovoltaico Hemera","estado":"En Calificación","tech":"Solar fotovoltaica","region":"Maule","mw":90,"segmento":"Utility Scale","almac":"Sí","year":2025},{"lat":-35,"lng":-71,"nombre":"Parque Fotovoltaico Los Naranjos","estado":"En Calificación","tech":"Solar fotovoltaica","region":"OHiggins","mw":9,"segmento":"PMGD","almac":"Sí","year":2025},{"lat":-22.262715,"lng":-69.567966,"nombre":"Parque Fotovoltaico Estepa Solar","estado":"En Pruebas","tech":"Solar fotovoltaica","region":"Antofagasta","mw":202.4,"segmento":"Utility Scale","almac":"Sí","year":2025},{"lat":-33.497954,"lng":-71.531755,"nombre":"Planta Fotovoltaica Módena Solar","estado":"En Construcción","tech":"Solar fotovoltaica","region":"Valparaíso","mw":9,"segmento":"PMGD","almac":"Sí","year":2025},{"lat":-32.455316,"lng":-71.273441,"nombre":"Sistema de Almacenamiento de Energía Kanut","estado":"En Calificación","tech":"BESS","region":"Valparaíso","mw":381,"segmento":"Utility Scale","almac":"Sí","year":2025},{"lat":-30.60473,"lng":-70.923965,"nombre":"Parque Fotovoltaico Lagunillas 94,5 MW y Línea Eléctrica Lagunillas - La Ruca 220 kV","estado":"Aprobado","tech":"Solar fotovoltaica","region":"Coquimbo","mw":94.5,"segmento":"Utility Scale","almac":"Sí","year":2025},{"lat":-32.787026,"lng":-71.453435,"nombre":"Planta Fotovoltaica Vernazza","estado":"Aprobado","tech":"Solar fotovoltaica","region":"Valparaíso","mw":150,"segmento":"Utility Scale","almac":"Sí","year":2025},{"lat":-33.691156,"lng":-71.241043,"nombre":"Sistema de almacenamiento de energía BESS y línea de transmisión Melipilla","estado":"Aprobado","tech":"BESS","region":"Metropolitana","mw":120,"segmento":"Utility Scale","almac":"Sí","year":2025},{"lat":-40.674979,"lng":-73.087077,"nombre":"Parque Fotovoltaico El Almud","estado":"Aprobado","tech":"Solar fotovoltaica","region":"Los Lagos","mw":7,"segmento":"PMGD","almac":"Sí","year":2025},{"lat":-34.553214,"lng":-70.957938,"nombre":"Parque Fotovoltaico Cotinga","estado":"Aprobado","tech":"Solar fotovoltaica","region":"OHiggins","mw":9,"segmento":"PMGD","almac":"Sí","year":2025},{"lat":-35.453212,"lng":-71.724111,"nombre":"Parque Fotovoltaico El Prado","estado":"Aprobado","tech":"Solar fotovoltaica","region":"Maule","mw":9,"segmento":"PMGD","almac":"Sí","year":2025},{"lat":-23.853353,"lng":-70.304031,"nombre":"Parque fotovoltaico con capacidad de almacenamiento Gaviota Solar","estado":"Aprobado","tech":"Solar fotovoltaica","region":"Antofagasta","mw":9,"segmento":"PMGD","almac":"Sí","year":2025},{"lat":-30.806555,"lng":-71.647514,"nombre":"Parque Eólico Cerro Los Loros","estado":"En Calificación","tech":"Eólica","region":"Coquimbo","mw":79.2,"segmento":"Utility Scale","almac":"Sí","year":2025},{"lat":-34.347692,"lng":-70.826446,"nombre":"Sistema de Almacenamiento de Energía y Transmisión Ollague","estado":"Aprobado","tech":"BESS","region":"OHiggins","mw":40,"segmento":"Utility Scale","almac":"Sí","year":2025},{"lat":-36,"lng":-72,"nombre":"Parque Eólico Andino Suiza","estado":"En Calificación","tech":"Eólica","region":"Ñuble","mw":115.2,"segmento":"Utility Scale","almac":"Sí","year":2025},{"lat":-28,"lng":-71,"nombre":"Parque Fotovoltaico Las Cunas","estado":"En Calificación","tech":"Solar fotovoltaica","region":"Atacama","mw":540,"segmento":"Utility Scale","almac":"Sí","year":2024},{"lat":-37.846949,"lng":-72.628616,"nombre":"Parque Eólico Cancura","estado":"En Construcción","tech":"Eólica","region":"La Araucanía","mw":33.6,"segmento":"Utility Scale","almac":"No","year":2024},{"lat":-33.011613,"lng":-71.323121,"nombre":"Planta Fotovoltaica Limachino","estado":"En Construcción","tech":"Solar fotovoltaica","region":"Valparaíso","mw":9,"segmento":"PMGD","almac":"No","year":2024},{"lat":-34.168942,"lng":-70.836423,"nombre":"PSF Doña Florinda (Ex PSF San Ramón)","estado":"En Pruebas","tech":"Solar fotovoltaica","region":"OHiggins","mw":9,"segmento":"PMGD","almac":"Sí","year":2024},{"lat":-40.578337,"lng":-73.086356,"nombre":"Sistema de Almacenamiento de Energía (SAE) Volcán Sollipulli","estado":"Aprobado","tech":"BESS","region":"Los Lagos","mw":40,"segmento":"Utility Scale","almac":"Sí","year":2024},{"lat":-40.579723,"lng":-73.085702,"nombre":"Parque Solar Cañal Bajo","estado":"Aprobado","tech":"Solar fotovoltaica","region":"Los Lagos","mw":9,"segmento":"PMGD","almac":"Sí","year":2024},{"lat":-36.979467,"lng":-72.272298,"nombre":"Planta Fotovoltaica Las Mellizas","estado":"En Calificación","tech":"Solar fotovoltaica","region":"Ñuble","mw":173,"segmento":"Utility Scale","almac":"Sí","year":2024},{"lat":-34,"lng":-71,"nombre":"Parque Fotovoltaico Hortensia Solar","estado":"Aprobado","tech":"Solar fotovoltaica","region":"Metropolitana","mw":9,"segmento":"PMGD","almac":"Sí","year":2024},{"lat":-27.446399,"lng":-70.447871,"nombre":"Adecuación Proyecto Parque Candelaria Solar y su Línea de Transmisión","estado":"Aprobado","tech":"BESS","region":"Atacama","mw":0,"segmento":"Utility Scale","almac":"Sí","year":2024},{"lat":-32.455395,"lng":-71.274416,"nombre":"Sistema de Almacenamiento de Energía BESS Atardecer","estado":"En Calificación","tech":"BESS","region":"Valparaíso","mw":150,"segmento":"Utility Scale","almac":"Sí","year":2024},{"lat":-30.717573,"lng":-70.785727,"nombre":"Línea de Transmisión y Central BESS Halcón 15","estado":"Aprobado","tech":"BESS","region":"Coquimbo","mw":12,"segmento":"Utility Scale","almac":"Sí","year":2024},{"lat":-37.091832,"lng":-72.32517,"nombre":"Sistema de Almacenamiento de Energía y Línea de Transmisión Eléctrica BESS Charruana","estado":"Aprobado","tech":"BESS","region":"Biobío","mw":200,"segmento":"Utility Scale","almac":"Sí","year":2024},{"lat":-41.114141,"lng":-73.21866,"nombre":"Parque Eólico Vientos del Lago","estado":"En Calificación","tech":"Eólica","region":"Los Lagos","mw":132,"segmento":"Utility Scale","almac":"No","year":2024},{"lat":-33.716944,"lng":-70.687881,"nombre":"Sistema de Almacenamiento de Energía y Línea de Transmisión Eléctrica BESS Metropolitana","estado":"Aprobado","tech":"BESS","region":"Metropolitana","mw":333,"segmento":"Utility Scale","almac":"Sí","year":2024},{"lat":-32.47318,"lng":-71.336139,"nombre":"Parque Solar Pullalli","estado":"En Calificación","tech":"Solar fotovoltaica","region":"Valparaíso","mw":299,"segmento":"Utility Scale","almac":"Sí","year":2024},{"lat":-29.354795,"lng":-71.029938,"nombre":"Parque Solar Fotovoltaico Punta del Viento","estado":"En Construcción","tech":"Solar fotovoltaica","region":"Coquimbo","mw":145,"segmento":"Utility Scale","almac":"No","year":2024},{"lat":-33.06877,"lng":-70.687649,"nombre":"Parque Fotovoltaico Libélula","estado":"En Pruebas","tech":"Solar fotovoltaica","region":"Metropolitana","mw":139.7,"segmento":"Utility Scale","almac":"Sí","year":2024},{"lat":-34.122548,"lng":-70.762115,"nombre":"Parque Fotovoltaico Catalina del Verano","estado":"Aprobado","tech":"Solar fotovoltaica","region":"OHiggins","mw":60,"segmento":"Utility Scale","almac":"Sí","year":2024},{"lat":-29.930978,"lng":-71.162349,"nombre":"Parque Solar La Polvareda","estado":"Aprobado","tech":"Solar fotovoltaica","region":"Coquimbo","mw":9,"segmento":"PMGD","almac":"Sí","year":2024},{"lat":-32.818071,"lng":-70.990335,"nombre":"Sistema de almacenamiento de energía con baterías - BESS La Isla","estado":"En Calificación","tech":"BESS","region":"Valparaíso","mw":250,"segmento":"Utility Scale","almac":"Sí","year":2024},{"lat":-34.197638,"lng":-70.789807,"nombre":"Parque Solar Fotovoltaico Vulcano","estado":"Aprobado","tech":"Solar fotovoltaica","region":"OHiggins","mw":9,"segmento":"PMGD","almac":"Sí","year":2024},{"lat":-36.160468,"lng":-72.355718,"nombre":"Parque Eólico Loncualhue","estado":"En Calificación","tech":"Eólica","region":"Maule","mw":316.8,"segmento":"Utility Scale","almac":"No","year":2024},{"lat":-38.572467,"lng":-72.330302,"nombre":"Parque Fotovoltaico Solango","estado":"En Calificación","tech":"Solar fotovoltaica","region":"La Araucanía","mw":8.2,"segmento":"Utility Scale","almac":"Sí","year":2024},{"lat":-34.359453,"lng":-71.517303,"nombre":"Parque Fotovoltaico Andino Los Maitenes","estado":"Aprobado","tech":"Solar fotovoltaica","region":"OHiggins","mw":84,"segmento":"Utility Scale","almac":"Sí","year":2024},{"lat":-20.236483,"lng":-69.671326,"nombre":"PFV Qanqiña","estado":"En Construcción","tech":"Solar fotovoltaica","region":"Tarapacá","mw":80,"segmento":"Utility Scale","almac":"No","year":2024},{"lat":-40.918197,"lng":-73.132021,"nombre":"Purranque 1","estado":"En Construcción","tech":"Eólica","region":"Los Lagos","mw":9,"segmento":"PMGD","almac":"No","year":2024},{"lat":-37.447185,"lng":-72.423785,"nombre":"Velasco Solar (Ex San Antonio Solar)","estado":"En Operación","tech":"Solar fotovoltaica","region":"Biobío","mw":5,"segmento":"PMGD","almac":"No","year":2024},{"lat":-35.600978,"lng":-71.589219,"nombre":"El Cerrillo Solar","estado":"Aprobado","tech":"Solar fotovoltaica","region":"Maule","mw":88,"segmento":"Utility Scale","almac":"Sí","year":2024},{"lat":-36.091295,"lng":-71.966257,"nombre":"Parque Solar BESS Cuyumillaco","estado":"Aprobado","tech":"Solar fotovoltaica","region":"Maule","mw":90,"segmento":"Utility Scale","almac":"Sí","year":2024},{"lat":-28.255559,"lng":-70.817832,"nombre":"Línea de Transmisión y Central BESS Halcón 8","estado":"Aprobado","tech":"BESS","region":"Atacama","mw":25,"segmento":"Utility Scale","almac":"Sí","year":2024},{"lat":-33.102577,"lng":-70.805648,"nombre":"Parque Fotovoltaico Polpaico Solar","estado":"Aprobado","tech":"Solar fotovoltaica","region":"Metropolitana","mw":9,"segmento":"PMG","almac":"Sí","year":2024},{"lat":-34.402013,"lng":-71.665785,"nombre":"Parque Fotovoltaico Alcones","estado":"En Construcción","tech":"Solar fotovoltaica","region":"OHiggins","mw":90,"segmento":"Utility Scale","almac":"No","year":2024},{"lat":-32.826597,"lng":-70.983084,"nombre":"Planta Fotovoltaica Livorno Solar","estado":"En Construcción","tech":"Solar fotovoltaica","region":"Valparaíso","mw":5,"segmento":"PMGD","almac":"Sí","year":2024},{"lat":-33.794465,"lng":-70.701855,"nombre":"Ampelo Solar","estado":"En Construcción","tech":"Solar fotovoltaica","region":"Metropolitana","mw":3.4,"segmento":"PMGD","almac":"No","year":2024},{"lat":-33.979475,"lng":-70.679956,"nombre":"Artemisa Solar","estado":"En Operación","tech":"Solar fotovoltaica","region":"OHiggins","mw":3,"segmento":"PMGD","almac":"No","year":2024},{"lat":-33.341075,"lng":-70.816057,"nombre":"Planta Fotovoltaica Belén","estado":"En Operación","tech":"Solar fotovoltaica","region":"Metropolitana","mw":6,"segmento":"PMGD","almac":"No","year":2024},{"lat":-27.84987,"lng":-70.775121,"nombre":"Sistema de Almacenamiento de Energía y Linea de Transmisión BESS Pueblo Hundido","estado":"Aprobado","tech":"BESS","region":"Atacama","mw":405,"segmento":"Utility Scale","almac":"Sí","year":2024},{"lat":-35.496305,"lng":-71.648866,"nombre":"Planta Solar Carmencita","estado":"Aprobado","tech":"Solar fotovoltaica","region":"Maule","mw":9,"segmento":"PMGD","almac":"No","year":2024},{"lat":-36.020788,"lng":-71.92872,"nombre":"Sistema de Almacenamiento de Energía (SAE) Volcán Guallatiri","estado":"Aprobado","tech":"BESS","region":"Maule","mw":8,"segmento":"Utility Scale","almac":"Sí","year":2024},{"lat":-33.667871,"lng":-71.205672,"nombre":"Parque Fotovoltaico Ostolazas","estado":"Aprobado","tech":"Solar fotovoltaica","region":"Metropolitana","mw":9,"segmento":"PMGD","almac":"Sí","year":2024},{"lat":-33.573096,"lng":-70.787043,"nombre":"Parque Fotovoltaico Queltehue","estado":"Aprobado","tech":"Solar fotovoltaica","region":"Metropolitana","mw":9,"segmento":"PMGD","almac":"Sí","year":2024},{"lat":-20.887008,"lng":-69.498443,"nombre":"Parque Fotovoltaico Solar Oriente","estado":"Aprobado","tech":"Solar fotovoltaica","region":"Tarapacá","mw":581.5,"segmento":"Utility Scale","almac":"Sí","year":2024},{"lat":-27.085035,"lng":-70.77511,"nombre":"Línea de Transmisión y Sistema BESS Cálice","estado":"Aprobado","tech":"BESS","region":"Atacama","mw":105,"segmento":"Utility Scale","almac":"Sí","year":2024},{"lat":-28.528554,"lng":-70.754577,"nombre":"Parque Fotovoltaico El Olivar","estado":"En Construcción","tech":"Solar fotovoltaica","region":"Atacama","mw":9,"segmento":"PMG","almac":"No","year":2024},{"lat":-28.526949,"lng":-70.760088,"nombre":"Parque Fotovoltaico Hijuela","estado":"En Construcción","tech":"Solar fotovoltaica","region":"Atacama","mw":9,"segmento":"PMG","almac":"No","year":2024},{"lat":-33.627182,"lng":-71.573051,"nombre":"Planta Fotovoltaica Rivazzurra Solar","estado":"En Construcción","tech":"Solar fotovoltaica","region":"Valparaíso","mw":9,"segmento":"PMGD","almac":"Sí","year":2024},{"lat":-33.11995,"lng":-70.81147,"nombre":"PMGD Belenos Til Til (Ex PMGD Til Til)","estado":"En Operación","tech":"Solar fotovoltaica","region":"Metropolitana","mw":9,"segmento":"PMGD","almac":"No","year":2024},{"lat":-18.435234,"lng":-70.26952,"nombre":"Línea de Transmisión y Central BESS Halcón 14","estado":"Aprobado","tech":"BESS","region":"Arica y Parinacota","mw":30,"segmento":"Utility Scale","almac":"Sí","year":2024},{"lat":-18.487879,"lng":-70.232716,"nombre":"Línea de Transmisión y Central BESS Halcón 7","estado":"Aprobado","tech":"BESS","region":"Arica y Parinacota","mw":17,"segmento":"Utility Scale","almac":"Sí","year":2024},{"lat":-34.555527,"lng":-70.95885,"nombre":"Proyecto Sistema de Almacenamiento de Energía (SAE) Volcán Hudson","estado":"Aprobado","tech":"BESS","region":"OHiggins","mw":40,"segmento":"Utility Scale","almac":"Sí","year":2024},{"lat":-37.599825,"lng":-72.5555,"nombre":"Parque Fotovoltaico Omega","estado":"Aprobado","tech":"Solar fotovoltaica","region":"Biobío","mw":4.9,"segmento":"PMGD","almac":"Sí","year":2024},{"lat":-33.479696,"lng":-70.660866,"nombre":"Parque Fotovoltaico Volcán Chascón","estado":"En Calificación","tech":"Solar fotovoltaica","region":"Metropolitana","mw":91.7,"segmento":"Utility Scale","almac":"Sí","year":2024},{"lat":-27.532534,"lng":-70.067031,"nombre":"Parque Fotovoltaico Cristaria Solar","estado":"En Calificación","tech":"Solar fotovoltaica","region":"Atacama","mw":200,"segmento":"Utility Scale","almac":"Sí","year":2024},{"lat":-34.659837,"lng":-70.862377,"nombre":"Parque Fotovoltaico Pequén","estado":"Aprobado","tech":"Solar fotovoltaica","region":"OHiggins","mw":9,"segmento":"PMGD","almac":"Sí","year":2024},{"lat":-34.420757,"lng":-70.859788,"nombre":"Parque Fotovoltaico Rengo Solar","estado":"En Operación","tech":"Solar fotovoltaica","region":"OHiggins","mw":7,"segmento":"PMGD","almac":"No","year":2024},{"lat":-33.311113,"lng":-71.430262,"nombre":"Sistema de Almacenamiento de Energía Polaris","estado":"Aprobado","tech":"BESS","region":"Valparaíso","mw":381.2,"segmento":"Utility Scale","almac":"Sí","year":2024},{"lat":-33.599731,"lng":-71.532737,"nombre":"Proyecto Solar Fotovoltaico Guanay","estado":"Aprobado","tech":"Solar fotovoltaica","region":"Valparaíso","mw":120,"segmento":"Utility Scale","almac":"Sí","year":2024},{"lat":-35.924328,"lng":-72.299764,"nombre":"Parque Fotovoltaico Chirigues","estado":"Aprobado","tech":"Solar fotovoltaica","region":"Maule","mw":100,"segmento":"Utility Scale","almac":"Sí","year":2024},{"lat":-40.33031,"lng":-73.013591,"nombre":"PARQUE FOTOVOLTAICO LOS TAMBORES","estado":"Aprobado","tech":"Solar fotovoltaica","region":"Los Ríos","mw":9,"segmento":"PMGD","almac":"Sí","year":2024},{"lat":-27.956095,"lng":-70.002133,"nombre":"Parque Fotovoltaico Syrah Solar","estado":"Aprobado","tech":"Solar fotovoltaica","region":"Atacama","mw":4,"segmento":"PMGD","almac":"Sí","year":2024},{"lat":-24.300077,"lng":-68.796056,"nombre":"Parque Fotovoltaico Altos del Sol","estado":"Aprobado","tech":"Solar fotovoltaica","region":"Antofagasta","mw":763.6,"segmento":"Utility Scale","almac":"Sí","year":2024},{"lat":-20.281663,"lng":-69.6374,"nombre":"Parque Fotovoltaico Víctor Jara","estado":"En Operación","tech":"Solar fotovoltaica","region":"Tarapacá","mw":200,"segmento":"Utility Scale","almac":"Sí","year":2024},{"lat":-39.815556,"lng":-73.147307,"nombre":"Parque Eólico El Alemán","estado":"En Construcción","tech":"Eólica","region":"Los Ríos","mw":9,"segmento":"PMGD","almac":"No","year":2024},{"lat":-36.750316,"lng":-72.137737,"nombre":"PMGD Cuarto Menguante","estado":"En Construcción","tech":"Solar fotovoltaica","region":"Ñuble","mw":9,"segmento":"PMGD","almac":"No","year":2024},{"lat":-39.950417,"lng":-72.593974,"nombre":"PARQUE FOTOVOLTAICO LOS ALAMOS","estado":"Aprobado","tech":"Solar fotovoltaica","region":"Los Ríos","mw":9,"segmento":"PMGD","almac":"Sí","year":2024},{"lat":-35.735153,"lng":-71.400635,"nombre":"Proyecto AR Panimávida Solar","estado":"Aprobado","tech":"Solar fotovoltaica","region":"Maule","mw":112.6,"segmento":"Utility Scale","almac":"No","year":2024},{"lat":-34.400868,"lng":-71.627869,"nombre":"Sistema de Almacenamiento de Energía Medialuna","estado":"Aprobado","tech":"BESS","region":"OHiggins","mw":66,"segmento":"Utility Scale","almac":"Sí","year":2024},{"lat":-33.546803,"lng":-70.898931,"nombre":"PSF Las Violetas","estado":"En Pruebas","tech":"Solar fotovoltaica","region":"Metropolitana","mw":4,"segmento":"PMGD","almac":"Sí","year":2024},{"lat":-33.70055,"lng":-70.886658,"nombre":"Nueva Central Solar Fotovoltaica Macao","estado":"En Operación","tech":"Solar fotovoltaica","region":"Metropolitana","mw":9,"segmento":"PMGD","almac":"No","year":2024},{"lat":-33.118535,"lng":-70.78408,"nombre":"Planta Solar Fotovoltaica Oro y Cielo","estado":"Aprobado","tech":"Solar fotovoltaica","region":"Metropolitana","mw":96.2,"segmento":"Utility Scale","almac":"No","year":2024},{"lat":-35.360026,"lng":-72.392933,"nombre":"Parque Fotovoltaico Cormorán","estado":"Aprobado","tech":"Solar fotovoltaica","region":"Maule","mw":9,"segmento":"PMGD","almac":"Sí","year":2024},{"lat":-39.842252,"lng":-72.789429,"nombre":"Parque Fotovoltaico Los Lagos","estado":"Aprobado","tech":"Solar fotovoltaica","region":"Los Ríos","mw":9,"segmento":"PMGD","almac":"Sí","year":2024},{"lat":-34.473683,"lng":-70.747755,"nombre":"Energética Solar Las Nieves","estado":"Aprobado","tech":"Solar fotovoltaica","region":"OHiggins","mw":9,"segmento":"PMGD","almac":"Sí","year":2024},{"lat":-34.309705,"lng":-70.822489,"nombre":"Energética Solar Requínoa","estado":"Aprobado","tech":"Solar fotovoltaica","region":"OHiggins","mw":9,"segmento":"PMGD","almac":"Sí","year":2024},{"lat":-32.787026,"lng":-71.453435,"nombre":"Energética Solar El Membrillo","estado":"Aprobado","tech":"Solar fotovoltaica","region":"Metropolitana","mw":150,"segmento":"Utility Scale","almac":"Sí","year":2024},{"lat":-35.130197,"lng":-71.364258,"nombre":"Sistema de Almacenamiento de Energía (SAE) Volcán Melimoyu","estado":"Aprobado","tech":"BESS","region":"Maule","mw":40,"segmento":"Utility Scale","almac":"Sí","year":2024},{"lat":-24.122351,"lng":-69.312277,"nombre":"Parque Fotovoltaico Zaldivar","estado":"Aprobado","tech":"Solar fotovoltaica","region":"Antofagasta","mw":250,"segmento":"Utility Scale","almac":"Sí","year":2024},{"lat":-34.33392,"lng":-71.561019,"nombre":"Parque Fotovoltaico Emú","estado":"Aprobado","tech":"Solar fotovoltaica","region":"OHiggins","mw":9,"segmento":"PMGD","almac":"Sí","year":2024},{"lat":-20.390529,"lng":-69.714013,"nombre":"Parque Solar Fotovotaico Tarapacá (Ex Parque Solar Fotovoltaico Tirana Oeste)","estado":"En Construcción","tech":"Solar fotovoltaica","region":"Tarapacá","mw":168,"segmento":"Utility Scale","almac":"Sí","year":2024},{"lat":-34.263439,"lng":-71.028818,"nombre":"Sistema de Almacenamiento de Energía (SAE) Volcán Mentolat","estado":"Aprobado","tech":"BESS","region":"OHiggins","mw":40,"segmento":"Utility Scale","almac":"Sí","year":2024},{"lat":-34.558004,"lng":-70.993269,"nombre":"Nueva Central Solar Fotovoltaica Las Guindillas","estado":"En Operación","tech":"Solar fotovoltaica","region":"OHiggins","mw":9,"segmento":"PMGD","almac":"No","year":2024},{"lat":-30.078355,"lng":-71.247114,"nombre":"Parque Fotovoltaico Cerrillos","estado":"En Pruebas","tech":"Solar fotovoltaica","region":"Coquimbo","mw":9,"segmento":"PMGD","almac":"No","year":2024},{"lat":-33.641112,"lng":-70.769816,"nombre":"Proyecto Planta Solar Santa Isidora","estado":"En Construcción","tech":"Solar fotovoltaica","region":"Metropolitana","mw":9,"segmento":"PMGD","almac":"No","year":2024},{"lat":-35.462787,"lng":-72.357571,"nombre":"Parque Eólico El Guanaco","estado":"Aprobado","tech":"Eólica","region":"Maule","mw":316.8,"segmento":"Utility Scale","almac":"No","year":2024},{"lat":-37.846576,"lng":-72.59115,"nombre":"DIA Parque Eólico Los Alpes","estado":"Aprobado","tech":"Eólica","region":"La Araucanía","mw":105.6,"segmento":"Utility Scale","almac":"No","year":2024},{"lat":-33.357376,"lng":-71.483164,"nombre":"Planta Solar Fotovoltaica con Almacenamiento de Energía Pradera Larga","estado":"Aprobado","tech":"Solar fotovoltaica","region":"Valparaíso","mw":100,"segmento":"Utility Scale","almac":"Sí","year":2024},{"lat":-22.543216,"lng":-68.754793,"nombre":"Parque Fotovoltaico Parina Solar","estado":"Aprobado","tech":"Solar fotovoltaica","region":"Antofagasta","mw":199.7,"segmento":"Utility Scale","almac":"Sí","year":2024},{"lat":-33.7142,"lng":-70.9265,"nombre":"Parque Fotovoltaico Santa Marta","estado":"En Construcción","tech":"Solar fotovoltaica","region":"Metropolitana","mw":9,"segmento":"PMGD","almac":"No","year":2024},{"lat":-34.101618,"lng":-70.715655,"nombre":"Parque Fotovoltaico Graneros","estado":"Aprobado","tech":"Solar fotovoltaica","region":"OHiggins","mw":7,"segmento":"PMGD","almac":"Sí","year":2024},{"lat":-35.13101,"lng":-71.264118,"nombre":"Parque Fotovoltaico Yeco","estado":"Aprobado","tech":"Solar fotovoltaica","region":"Maule","mw":9,"segmento":"PMGD","almac":"Sí","year":2024},{"lat":-35.951508,"lng":-72.364067,"nombre":"PSF Leo Bio","estado":"Aprobado","tech":"Solar fotovoltaica","region":"Maule","mw":7.7,"segmento":"PMGD","almac":"No","year":2024},{"lat":-40.266132,"lng":-73.115252,"nombre":"Parque Solar Burgos","estado":"Aprobado","tech":"Solar fotovoltaica","region":"Los Ríos","mw":9,"segmento":"PMGD","almac":"Sí","year":2024},{"lat":-40.332293,"lng":-73.003174,"nombre":"Parque Solar Rio Bueno","estado":"Aprobado","tech":"Solar fotovoltaica","region":"Los Ríos","mw":9,"segmento":"PMGD","almac":"Sí","year":2024},{"lat":-32.787531,"lng":-71.442389,"nombre":"Planta Fotovoltaica Corniglia","estado":"Aprobado","tech":"Solar fotovoltaica","region":"Valparaíso","mw":9,"segmento":"PMGD","almac":"Sí","year":2024},{"lat":-34.250954,"lng":-70.849453,"nombre":"PFV José Solar","estado":"Aprobado","tech":"Solar fotovoltaica","region":"OHiggins","mw":9,"segmento":"PMGD","almac":"Sí","year":2024},{"lat":-33.750566,"lng":-70.828176,"nombre":"Planta Solar La Puntilla","estado":"En Construcción","tech":"Solar fotovoltaica","region":"Metropolitana","mw":9,"segmento":"PMGD","almac":"No","year":2024},{"lat":-36.40123,"lng":-71.944468,"nombre":"PMGD FV La Cosecha","estado":"En Operación","tech":"Solar fotovoltaica","region":"Ñuble","mw":9,"segmento":"Utility Scale","almac":"No","year":2024},{"lat":-32.79379,"lng":-70.874305,"nombre":"Sistema de almacenamiento de Energía por Baterías - San Rafael","estado":"Aprobado","tech":"BESS","region":"Valparaíso","mw":90,"segmento":"Utility Scale","almac":"Sí","year":2024},{"lat":-35.381574,"lng":-71.571586,"nombre":"FV Conde","estado":"Aprobado","tech":"Solar fotovoltaica","region":"Maule","mw":9,"segmento":"PMGD","almac":"No","year":2024},{"lat":-20.405886,"lng":-69.836872,"nombre":"Proyecto Fotovoltaico con Almacenamiento Tamarindo","estado":"Aprobado","tech":"Solar fotovoltaica","region":"Tarapacá","mw":9,"segmento":"PMGD","almac":"Sí","year":2024},{"lat":-40.932082,"lng":-73.156881,"nombre":"Parque Fotovoltaico Purranque","estado":"Aprobado","tech":"Solar fotovoltaica","region":"Los Lagos","mw":4.5,"segmento":"PMGD","almac":"Sí","year":2024},{"lat":-33.752347,"lng":-70.886377,"nombre":"Planta Solar Balmaceda","estado":"Aprobado","tech":"Solar fotovoltaica","region":"Metropolitana","mw":9,"segmento":"PMGD","almac":"Sí","year":2024},{"lat":-22.888927,"lng":-69.292984,"nombre":"PFV Gabriela + BESS","estado":"En Pruebas","tech":"Solar fotovoltaica","region":"Antofagasta","mw":220,"segmento":"Utility Scale","almac":"Sí","year":2024},{"lat":-41.2225,"lng":-73.2965,"nombre":"Parque Eólico Cuatro Vientos","estado":"En Calificación","tech":"Eólica","region":"Los Lagos","mw":360,"segmento":"Utility Scale","almac":"No","year":2024},{"lat":-33.321266,"lng":-71.427032,"nombre":"Parque Solar Fotovoltaico Acuyo","estado":"Aprobado","tech":"Solar fotovoltaica","region":"Valparaíso","mw":82,"segmento":"Utility Scale","almac":"Sí","year":2024},{"lat":-32.799379,"lng":-71.453476,"nombre":"Planta Fotovoltaica Manarola","estado":"Aprobado","tech":"Solar fotovoltaica","region":"Valparaíso","mw":9,"segmento":"PMGD","almac":"Sí","year":2024},{"lat":-32.448345,"lng":-71.338061,"nombre":"Parque Fotovoltaico Leones Solar","estado":"Aprobado","tech":"Solar fotovoltaica","region":"Valparaíso","mw":100.8,"segmento":"Utility Scale","almac":"Sí","year":2024},{"lat":-37.029447,"lng":-72.138389,"nombre":"Parque Eólico Dañicalqui","estado":"Aprobado","tech":"Eólica","region":"Ñuble","mw":95.2,"segmento":"Utility Scale","almac":"No","year":2024},{"lat":-36.627601,"lng":-72.189278,"nombre":"Parque Fotovoltaico Sol del Sur SG","estado":"Aprobado","tech":"Solar fotovoltaica","region":"Ñuble","mw":9,"segmento":"Utility Scale","almac":"Sí","year":2024},{"lat":-34.621997,"lng":-70.980184,"nombre":"Parque Solar Chucao","estado":"Aprobado","tech":"Solar fotovoltaica","region":"OHiggins","mw":9,"segmento":"PMGD","almac":"Sí","year":2024},{"lat":-33.299674,"lng":-70.649856,"nombre":"Planta Fotovoltaica Chieti Solar","estado":"Aprobado","tech":"Solar fotovoltaica","region":"Metropolitana","mw":9,"segmento":"PMGD","almac":"Sí","year":2024},{"lat":-33.173394,"lng":-71.547574,"nombre":"Parque Solar Comunidad","estado":"Aprobado","tech":"Solar fotovoltaica","region":"Valparaíso","mw":9,"segmento":"PMGD","almac":"Sí","year":2024},{"lat":-37.439914,"lng":-71.936017,"nombre":"PSF Leona del Agua II","estado":"Aprobado","tech":"Solar fotovoltaica","region":"Biobío","mw":9,"segmento":"PMGD","almac":"Sí","year":2024},{"lat":-24.877754,"lng":-69.804859,"nombre":"Parque Eólico Antofagasta","estado":"En Pruebas","tech":"Eólica","region":"Antofagasta","mw":364,"segmento":"Utility Scale","almac":"No","year":2023},{"lat":-27.571372,"lng":-70.226108,"nombre":"Línea de Transmisión y Central BESS Halcón 3","estado":"Aprobado","tech":"BESS","region":"Atacama","mw":65,"segmento":"Utility Scale","almac":"Sí","year":2023},{"lat":-34.13614,"lng":-70.830887,"nombre":"Planta Fotovoltaica Faro Santa Elena","estado":"En Pruebas","tech":"Solar fotovoltaica","region":"OHiggins","mw":9,"segmento":"Utility Scale","almac":"No","year":2023},{"lat":-23,"lng":-70,"nombre":"Parque Fotovoltaico Farol","estado":"En Operación","tech":"Solar fotovoltaica","region":"Antofagasta","mw":9,"segmento":"PMGD","almac":"No","year":2023},{"lat":-26.401826,"lng":-70.061579,"nombre":"Línea de Transmisión y Central BESS Halcón de Almagro","estado":"Aprobado","tech":"BESS","region":"Atacama","mw":64,"segmento":"Utility Scale","almac":"Sí","year":2023},{"lat":-26.401826,"lng":-70.061579,"nombre":"Línea de Transmisión y Central BESS Halcón 10","estado":"Aprobado","tech":"BESS","region":"Atacama","mw":55,"segmento":"Utility Scale","almac":"Sí","year":2023},{"lat":-35.080158,"lng":-71.286663,"nombre":"Parque Fotovoltaico Cigüeña","estado":"Aprobado","tech":"Solar fotovoltaica","region":"Maule","mw":9,"segmento":"PMGD","almac":"Sí","year":2023},{"lat":-32.844407,"lng":-70.989064,"nombre":"Línea de Transmisión y Central BESS Halcón 6","estado":"Aprobado","tech":"BESS","region":"Valparaíso","mw":26,"segmento":"Utility Scale","almac":"Sí","year":2023},{"lat":-33.026933,"lng":-71.27124,"nombre":"Parque Fotovoltaico Santa Ana del Pangal","estado":"Aprobado","tech":"Solar fotovoltaica","region":"Valparaíso","mw":9,"segmento":"PMGD","almac":"Sí","year":2023},{"lat":-32.330994,"lng":-71.268418,"nombre":"Parque Fotovoltaico Andino Longotoma","estado":"Aprobado","tech":"Solar fotovoltaica","region":"Valparaíso","mw":222,"segmento":"Utility Scale","almac":"Sí","year":2023},{"lat":-27.278315,"lng":-70.396558,"nombre":"Línea de Transmisión y Central BESS Halcón 4","estado":"Aprobado","tech":"BESS","region":"Atacama","mw":100,"segmento":"Utility Scale","almac":"Sí","year":2023},{"lat":-33.563786,"lng":-71.251247,"nombre":"Planta Solar Fotovoltaica Canastero","estado":"Aprobado","tech":"Solar fotovoltaica","region":"Metropolitana","mw":90,"segmento":"Utility Scale","almac":"Sí","year":2023},{"lat":-29.942984,"lng":-70.537537,"nombre":"Línea de Transmisión y Central BESS Halcón 13","estado":"Aprobado","tech":"BESS","region":"Coquimbo","mw":52,"segmento":"Utility Scale","almac":"Sí","year":2023},{"lat":-20.320717,"lng":-69.753309,"nombre":"Línea de Transmisión y Central BESS Halcón 20","estado":"Aprobado","tech":"BESS","region":"Tarapacá","mw":300,"segmento":"Utility Scale","almac":"Sí","year":2023},{"lat":-30.149916,"lng":-71.199201,"nombre":"Línea de Transmisión y Central BESS Halcón 9","estado":"Aprobado","tech":"BESS","region":"Coquimbo","mw":69,"segmento":"Utility Scale","almac":"Sí","year":2023},{"lat":-20.231708,"lng":-69.625938,"nombre":"Línea de Transmisión y Central BESS Halcón 2","estado":"Aprobado","tech":"BESS","region":"Tarapacá","mw":57,"segmento":"Utility Scale","almac":"Sí","year":2023},{"lat":-33,"lng":-71,"nombre":"Parque Fotovoltaico Leonera Solar","estado":"En Calificación","tech":"Solar fotovoltaica","region":"Valparaíso","mw":7.4,"segmento":"PMGD","almac":"Sí","year":2023},{"lat":-29.080723,"lng":-70.915963,"nombre":"Planta Fotovoltaica Cachiyuyo","estado":"En Construcción","tech":"Solar fotovoltaica","region":"Atacama","mw":50,"segmento":"Utility Scale","almac":"No","year":2023},{"lat":-23.066589,"lng":-70.368321,"nombre":"Proyecto Alba","estado":"Aprobado","tech":"Batería de Carnot","region":"Antofagasta","mw":560,"segmento":"Utility Scale","almac":"Sí","year":2023},{"lat":-32.763799,"lng":-71.376671,"nombre":"Parque Fotovoltaico Los Maquis Solar","estado":"Aprobado","tech":"Solar fotovoltaica","region":"Valparaíso","mw":7.5,"segmento":"PMGD","almac":"No","year":2023},{"lat":-33.124544,"lng":-70.868088,"nombre":"Parque Fotovoltaico El Bautizo","estado":"Aprobado","tech":"Solar fotovoltaica","region":"Metropolitana","mw":9,"segmento":"Utility Scale","almac":"No","year":2023},{"lat":-40.64628,"lng":-73.092869,"nombre":"Parque Fotovoltaico Las Mentas","estado":"Aprobado","tech":"Solar fotovoltaica","region":"Los Lagos","mw":9,"segmento":"PMGD","almac":"Sí","year":2023},{"lat":-34.954987,"lng":-71.716178,"nombre":"Sol de Caone","estado":"Aprobado","tech":"Solar fotovoltaica","region":"Maule","mw":420,"segmento":"Utility Scale","almac":"No","year":2023},{"lat":-33.406335,"lng":-71.589436,"nombre":"Sol de Valle Hermoso","estado":"En Construcción","tech":"Solar fotovoltaica","region":"Valparaíso","mw":9,"segmento":"PMGD","almac":"Sí","year":2023},{"lat":-18.92444,"lng":-70.149788,"nombre":"Proyecto Parque Fotovoltaico Alwa II","estado":"Aprobado","tech":"Solar fotovoltaica","region":"Arica y Parinacota","mw":198,"segmento":"Utility Scale","almac":"Sí","year":2023},{"lat":-36.741349,"lng":-72.143128,"nombre":"La Mocha Solar","estado":"Aprobado","tech":"Solar fotovoltaica","region":"Ñuble","mw":160,"segmento":"Utility Scale","almac":"Sí","year":2023},{"lat":-33.28881,"lng":-70.793422,"nombre":"Proyecto Solar Fotovoltaico Lampa","estado":"Aprobado","tech":"Solar fotovoltaica","region":"Metropolitana","mw":108,"segmento":"Utility Scale","almac":"Sí","year":2023},{"lat":-33.093708,"lng":-70.85166,"nombre":"Parque Fotovoltaico Lucía Solar","estado":"Aprobado","tech":"Solar fotovoltaica","region":"Metropolitana","mw":42,"segmento":"Utility Scale","almac":"Sí","year":2023},{"lat":-32.877353,"lng":-70.695356,"nombre":"Parque Fotovoltaico Auco Sunlight","estado":"Aprobado","tech":"Solar fotovoltaica","region":"Valparaíso","mw":9,"segmento":"PMGD","almac":"Sí","year":2023},{"lat":-40.525301,"lng":-73.152779,"nombre":"Parque Solar Pampa Alegre","estado":"Aprobado","tech":"Solar fotovoltaica","region":"Los Lagos","mw":9,"segmento":"PMGD","almac":"Sí","year":2023},{"lat":-34.17486,"lng":-70.809446,"nombre":"Planta Fotovoltaica Punta de Cortés","estado":"Aprobado","tech":"Solar fotovoltaica","region":"OHiggins","mw":9,"segmento":"PMGD","almac":"Sí","year":2023},{"lat":-28.508162,"lng":-70.921772,"nombre":"Parque Fotovoltaico Don Carlos","estado":"Aprobado","tech":"Solar fotovoltaica","region":"Atacama","mw":196,"segmento":"Utility Scale","almac":"Sí","year":2023},{"lat":-41.676295,"lng":-73.28045,"nombre":"Parque Eólico Los Portones","estado":"En Calificación","tech":"Eólica","region":"Los Lagos","mw":167.4,"segmento":"Utility Scale","almac":"Sí","year":2023},{"lat":-34.146612,"lng":-70.681946,"nombre":"PMGD CE Machalí","estado":"En Construcción","tech":"Solar fotovoltaica","region":"OHiggins","mw":9,"segmento":"PMGD","almac":"No","year":2023},{"lat":-28.202206,"lng":-70.705706,"nombre":"Parque solar fotovoltaico Ceibo","estado":"En Calificación","tech":"Solar fotovoltaica","region":"Atacama","mw":250,"segmento":"Utility Scale","almac":"Sí","year":2023},{"lat":-30.444984,"lng":-71.082397,"nombre":"Parque Fotovoltaico La Chupalla","estado":"Aprobado","tech":"Solar fotovoltaica","region":"Coquimbo","mw":129,"segmento":"Utility Scale","almac":"Sí","year":2023},{"lat":-32.859551,"lng":-70.946546,"nombre":"Parque Fotovoltaico El Roble","estado":"Aprobado","tech":"Solar fotovoltaica","region":"Valparaíso","mw":6,"segmento":"Utility Scale","almac":"Sí","year":2023},{"lat":-35.50483,"lng":-71.544768,"nombre":"Planta Fotovoltaica Cahuil Solar II","estado":"Aprobado","tech":"Solar fotovoltaica","region":"Maule","mw":6,"segmento":"PMGD","almac":"No","year":2023},{"lat":-24.801973,"lng":-69.84502,"nombre":"BESS Parque Eólico Pampa Fidelia Etapa 1","estado":"Aprobado","tech":"BESS","region":"Antofagasta","mw":0,"segmento":"Utility Scale","almac":"Sí","year":2023},{"lat":-24.801973,"lng":-69.84502,"nombre":"BESS Parque Eólico Pampa Fidelia Etapa 2","estado":"Aprobado","tech":"BESS","region":"Antofagasta","mw":0,"segmento":"Utility Scale","almac":"Sí","year":2023},{"lat":-32.843724,"lng":-71.444836,"nombre":"Parque Fotovoltaico Ritoque Solar","estado":"Aprobado","tech":"Solar fotovoltaica","region":"Valparaíso","mw":80,"segmento":"Utility Scale","almac":"Sí","year":2023},{"lat":-32.859559,"lng":-70.946553,"nombre":"Porvenir Solar","estado":"Aprobado","tech":"Solar fotovoltaica","region":"Valparaíso","mw":40,"segmento":"Utility Scale","almac":"Sí","year":2023},{"lat":-30.580874,"lng":-71.689674,"nombre":"PARQUE EÓLICO CARICA","estado":"En Calificación","tech":"Eólica","region":"Coquimbo","mw":85,"segmento":"Utility Scale","almac":"Sí","year":2023},{"lat":-27.857577,"lng":-70.196073,"nombre":"Ampliación Central Desierto de Atacama","estado":"En Operación","tech":"Solar fotovoltaica","region":"Atacama","mw":138.9,"segmento":"Utility Scale","almac":"Sí","year":2023},{"lat":-27.864475,"lng":-70.184346,"nombre":"Central Desierto De Atacama","estado":"En Operación","tech":"Solar fotovoltaica","region":"Atacama","mw":96.4,"segmento":"Utility Scale","almac":"Sí","year":2023},{"lat":-34.237852,"lng":-70.816845,"nombre":"Planta Solar El Membrillar","estado":"En Construcción","tech":"Solar fotovoltaica","region":"OHiggins","mw":9,"segmento":"PMGD","almac":"No","year":2023},{"lat":-31.629834,"lng":-71.181648,"nombre":"Siete Colores","estado":"En Operación","tech":"Solar fotovoltaica","region":"Coquimbo","mw":9,"segmento":"PMGD","almac":"No","year":2023},{"lat":-36.763849,"lng":-72.067291,"nombre":"Santa Graciela Solar","estado":"Aprobado","tech":"Solar fotovoltaica","region":"Ñuble","mw":80,"segmento":"Utility Scale","almac":"Sí","year":2023},{"lat":-41.892699,"lng":-72.72581,"nombre":"Parque Eólico Loma Verde","estado":"En Calificación","tech":"Eólica","region":"Los Lagos","mw":136.4,"segmento":"Utility Scale","almac":"Sí","year":2023},{"lat":-31.613597,"lng":-71.378279,"nombre":"Parque Fotovoltaico Llanos de Rungue","estado":"Aprobado","tech":"Solar fotovoltaica","region":"Coquimbo","mw":280,"segmento":"Utility Scale","almac":"Sí","year":2023},{"lat":-32.910169,"lng":-71.273972,"nombre":"Energía Esmeralda","estado":"Aprobado","tech":"Solar fotovoltaica","region":"Valparaíso","mw":9,"segmento":"PMGD","almac":"No","year":2023},{"lat":-39.718726,"lng":-73.085842,"nombre":"Parque Fotovoltaico Los Arrayanes","estado":"Aprobado","tech":"Solar fotovoltaica","region":"Los Ríos","mw":9,"segmento":"PMGD","almac":"Sí","year":2023},{"lat":-34.626677,"lng":-71.159452,"nombre":"Parque Fotovoltaico Yaquil","estado":"Aprobado","tech":"Solar fotovoltaica","region":"OHiggins","mw":9,"segmento":"PMGD","almac":"Sí","year":2023},{"lat":-41.88134,"lng":-73.68148,"nombre":"PMGD Coloane","estado":"Aprobado","tech":"Eólica","region":"Los Lagos","mw":9,"segmento":"PMGD","almac":"Sí","year":2023},{"lat":-41.763399,"lng":-73.487518,"nombre":"PMGD Dalca","estado":"Aprobado","tech":"Eólica","region":"Los Lagos","mw":9,"segmento":"PMGD","almac":"Sí","year":2023},{"lat":-36.076165,"lng":-71.949069,"nombre":"Parque Solar Parral","estado":"Aprobado","tech":"Solar fotovoltaica","region":"Maule","mw":165,"segmento":"Utility Scale","almac":"Sí","year":2023},{"lat":-35.817148,"lng":-71.640091,"nombre":"Sol de León","estado":"Aprobado","tech":"Solar fotovoltaica","region":"Maule","mw":50,"segmento":"Utility Scale","almac":"Sí","year":2023},{"lat":-35.618021,"lng":-71.795271,"nombre":"Parque Solar San Javier","estado":"Aprobado","tech":"Solar fotovoltaica","region":"Maule","mw":80,"segmento":"Utility Scale","almac":"Sí","year":2023},{"lat":-33.761506,"lng":-70.786788,"nombre":"Parque Fotovoltaico El Capitán","estado":"Aprobado","tech":"Solar fotovoltaica","region":"Metropolitana","mw":9,"segmento":"PMG","almac":"Sí","year":2023},{"lat":-32.481285,"lng":-71.236019,"nombre":"Planta Solar La Ligua 9 MW","estado":"Aprobado","tech":"Solar fotovoltaica","region":"Valparaíso","mw":9,"segmento":"Utility Scale","almac":"No","year":2023},{"lat":-33.118943,"lng":-70.828039,"nombre":"Proyecto Solar Fotovoltaico Don Humberto","estado":"En Operación","tech":"Solar fotovoltaica","region":"Metropolitana","mw":80.8,"segmento":"Utility Scale","almac":"Sí","year":2023},{"lat":-34.39035,"lng":-70.827955,"nombre":"Planta Fotovoltaica Lo Miguel","estado":"En Operación","tech":"Solar fotovoltaica","region":"OHiggins","mw":9,"segmento":"PMGD","almac":"No","year":2023},{"lat":-40.316614,"lng":-73.11898,"nombre":"Parque Solar Mautz","estado":"Aprobado","tech":"Solar fotovoltaica","region":"Los Ríos","mw":9,"segmento":"PMGD","almac":"Sí","year":2023},{"lat":-32.789842,"lng":-71.479838,"nombre":"Solar Ray 1","estado":"Aprobado","tech":"Solar fotovoltaica","region":"Valparaíso","mw":44.1,"segmento":"Utility Scale","almac":"Sí","year":2023},{"lat":-36.752967,"lng":-72.386024,"nombre":"Parque Fotovoltaico Bulnes","estado":"Aprobado","tech":"Solar fotovoltaica","region":"Ñuble","mw":9,"segmento":"PMGD","almac":"No","year":2023},{"lat":-35.058169,"lng":-71.700052,"nombre":"Parque Solar Fotovoltaico Chimango","estado":"Aprobado","tech":"Solar fotovoltaica","region":"Maule","mw":165,"segmento":"Utility Scale","almac":"Sí","year":2023},{"lat":-36.030638,"lng":-71.925057,"nombre":"Planta Fotovoltaica Tamango","estado":"En Operación","tech":"Solar fotovoltaica","region":"Maule","mw":45.8,"segmento":"Utility Scale","almac":"No","year":2023},{"lat":-34.121318,"lng":-71.64688,"nombre":"Parque Eólico Los Cerrillos","estado":"En Operación","tech":"Eólica","region":"OHiggins","mw":44.7,"segmento":"Utility Scale","almac":"No","year":2023},{"lat":-33.971931,"lng":-70.675285,"nombre":"San Francisco Solar","estado":"Aprobado","tech":"Solar fotovoltaica","region":"OHiggins","mw":9,"segmento":"PMGD","almac":"Sí","year":2023},{"lat":-37.080718,"lng":-72.376094,"nombre":"Proyecto Fotovoltaico Don Davo","estado":"Aprobado","tech":"Solar fotovoltaica","region":"Biobío","mw":9,"segmento":"PMGD","almac":"Sí","year":2023},{"lat":-24.862099,"lng":-69.92172,"nombre":"Parque Eólico Kallpa (Ex Lomas de Taltal)","estado":"En Operación","tech":"Eólica","region":"Antofagasta","mw":335.6,"segmento":"Utility Scale","almac":"No","year":2023},{"lat":-20.802446,"lng":-69.452166,"nombre":"Parque Fotovoltaico Aurora Solar","estado":"En Construcción","tech":"Solar fotovoltaica","region":"Tarapacá","mw":187,"segmento":"Utility Scale","almac":"No","year":2023},{"lat":-33.609079,"lng":-71.490652,"nombre":"Parque Fotovoltaico Leyda","estado":"En Operación","tech":"Solar fotovoltaica","region":"Valparaíso","mw":80,"segmento":"Utility Scale","almac":"No","year":2023},{"lat":-34.450031,"lng":-70.31784,"nombre":"MCHP Cipresillos","estado":"En Operación","tech":"Mini Hidráulica Pasada","region":"OHiggins","mw":10.4,"segmento":"Utility Scale","almac":"No","year":2023},{"lat":-32.960108,"lng":-70.841128,"nombre":"PMGD Montenegro I","estado":"Aprobado","tech":"Solar fotovoltaica","region":"Metropolitana","mw":5.7,"segmento":"PMGD","almac":"No","year":2023},{"lat":-36.608903,"lng":-72.056453,"nombre":"Parque Fotovoltaico El Cachudito","estado":"Aprobado","tech":"Solar fotovoltaica","region":"Ñuble","mw":9,"segmento":"PMGD","almac":"Sí","year":2023},{"lat":-30.215327,"lng":-71.253501,"nombre":"Parque Fotovoltaico Chirihue","estado":"Aprobado","tech":"Solar fotovoltaica","region":"Coquimbo","mw":9,"segmento":"PMGD","almac":"Sí","year":2023},{"lat":-35.167713,"lng":-71.175915,"nombre":"Parque Fotovoltaico Gavilán","estado":"Aprobado","tech":"Solar fotovoltaica","region":"Maule","mw":9,"segmento":"PMGD","almac":"Sí","year":2023},{"lat":-34.840372,"lng":-71.187436,"nombre":"Arboleda Solar","estado":"Aprobado","tech":"Solar fotovoltaica","region":"Maule","mw":80,"segmento":"Utility Scale","almac":"No","year":2023},{"lat":-37.692021,"lng":-72.623032,"nombre":"Parque Eólico Vergara","estado":"Aprobado","tech":"Eólica","region":"La Araucanía","mw":43.2,"segmento":"Utility Scale","almac":"No","year":2023},{"lat":-28.545903,"lng":-70.786106,"nombre":"Parque Fotovoltaico Zorzalito","estado":"Aprobado","tech":"Solar fotovoltaica","region":"Atacama","mw":9,"segmento":"PMGD","almac":"Sí","year":2023},{"lat":-30.003469,"lng":-71.230122,"nombre":"Ampliación del Parque Fotovoltaico Faro de El Triunfo","estado":"Aprobado","tech":"Solar fotovoltaica","region":"Coquimbo","mw":3.8,"segmento":"PMGD","almac":"No","year":2023},{"lat":-36.616732,"lng":-72.036751,"nombre":"FV Aldea","estado":"Aprobado","tech":"Solar fotovoltaica","region":"Ñuble","mw":7,"segmento":"PMGD","almac":"Sí","year":2023},{"lat":-42.154851,"lng":-73.718536,"nombre":"CH1 Butalcura","estado":"En Construcción","tech":"Eólica","region":"Los Lagos","mw":9,"segmento":"PMGD","almac":"No","year":2023},{"lat":-42.131548,"lng":-73.734848,"nombre":"PMGD CH2 Butalcura","estado":"En Construcción","tech":"Eólica","region":"Los Lagos","mw":9,"segmento":"PMGD","almac":"No","year":2023},{"lat":-37.596107,"lng":-72.209779,"nombre":"Albor Solar","estado":"En Operación","tech":"Solar fotovoltaica","region":"Biobío","mw":5.2,"segmento":"PMGD","almac":"No","year":2023},{"lat":-34.146546,"lng":-71.612808,"nombre":"Parque Fotovoltaico Pulin","estado":"Aprobado","tech":"Solar fotovoltaica","region":"OHiggins","mw":60,"segmento":"Utility Scale","almac":"No","year":2023},{"lat":-36.612979,"lng":-72.028002,"nombre":"FV Ñuble","estado":"Aprobado","tech":"Solar fotovoltaica","region":"Ñuble","mw":9,"segmento":"PMGD","almac":"Sí","year":2023},{"lat":-21.861501,"lng":-68.151345,"nombre":"Cerro Pabellón Unidad 3","estado":"En Operación","tech":"Geotérmica","region":"Antofagasta","mw":32.3,"segmento":"Utility Scale","almac":"No","year":2022},{"lat":-24.056975,"lng":-69.562668,"nombre":"Parque FV Domeyko","estado":"En Operación","tech":"Solar fotovoltaica","region":"Antofagasta","mw":201.6,"segmento":"Utility Scale","almac":"No","year":2022},{"lat":-33.33485,"lng":-70.688423,"nombre":"Planta Fotovoltaica Hugo Lorenzo","estado":"Aprobado","tech":"Solar fotovoltaica","region":"Metropolitana","mw":33,"segmento":"Utility Scale","almac":"No","year":2022},{"lat":-34.814225,"lng":-71.127939,"nombre":"Planta Fotovoltaica Gran Teno","estado":"En Operación","tech":"Solar fotovoltaica","region":"Maule","mw":199.6,"segmento":"Utility Scale","almac":"No","year":2022},{"lat":-33.026438,"lng":-70.698126,"nombre":"Ampliación Tauretes","estado":"Aprobado","tech":"Solar fotovoltaica","region":"Metropolitana","mw":0.4,"segmento":"Utility Scale","almac":"No","year":2022},{"lat":-22.494463,"lng":-69.111696,"nombre":"Parque Fotovoltaico Terrazas","estado":"Aprobado","tech":"Solar fotovoltaica","region":"Antofagasta","mw":151.2,"segmento":"Utility Scale","almac":"Sí","year":2022},{"lat":-35.122022,"lng":-71.194569,"nombre":"Parque Fotovoltaico Halcón Peregrino","estado":"Aprobado","tech":"Solar fotovoltaica","region":"Maule","mw":5.4,"segmento":"PMGD","almac":"Sí","year":2022},{"lat":-28.53872,"lng":-70.929183,"nombre":"Libertad II","estado":"En Construcción","tech":"Solar fotovoltaica","region":"Atacama","mw":122,"segmento":"Utility Scale","almac":"No","year":2022},{"lat":-28.53872,"lng":-70.929183,"nombre":"Libertad III","estado":"En Construcción","tech":"Solar fotovoltaica","region":"Atacama","mw":122,"segmento":"Utility Scale","almac":"No","year":2022},{"lat":-37.424827,"lng":-72.573765,"nombre":"Parque Eólico San Matías - Etapa 1","estado":"En Operación","tech":"Eólica","region":"Biobío","mw":75.8,"segmento":"Utility Scale","almac":"No","year":2022},{"lat":-32.355123,"lng":-71.314951,"nombre":"Quinquimo Solar","estado":"Aprobado","tech":"Solar fotovoltaica","region":"Valparaíso","mw":65,"segmento":"Utility Scale","almac":"Sí","year":2022},{"lat":-33.718795,"lng":-70.696971,"nombre":"PFV Alto Jahuel Solar","estado":"Aprobado","tech":"Solar fotovoltaica","region":"Metropolitana","mw":5.6,"segmento":"PMGD","almac":"No","year":2022},{"lat":-23.417664,"lng":-70.182732,"nombre":"Parque Fotovoltaico Capricornio","estado":"En Operación","tech":"Solar fotovoltaica","region":"Antofagasta","mw":88.6,"segmento":"Utility Scale","almac":"No","year":2022},{"lat":-37.122091,"lng":-71.583242,"nombre":"El Pinar","estado":"En Operación","tech":"Mini Hidráulica Pasada","region":"Ñuble","mw":11.4,"segmento":"Utility Scale","almac":"No","year":2022},{"lat":-42.159224,"lng":-73.685254,"nombre":"PMGD Eólico Oxypora","estado":"Aprobado","tech":"Eólica","region":"Los Lagos","mw":9,"segmento":"PMGD","almac":"No","year":2022},{"lat":-20.318119,"lng":-70.078553,"nombre":"Parque Fotovoltaico Platero","estado":"Aprobado","tech":"Solar fotovoltaica","region":"Tarapacá","mw":9,"segmento":"PMGD","almac":"Sí","year":2022},{"lat":-30.471185,"lng":-71.165396,"nombre":"Planta Solar Fotovoltaica Doña Antonia","estado":"En Operación","tech":"Solar fotovoltaica","region":"Coquimbo","mw":79.4,"segmento":"Utility Scale","almac":"No","year":2022},{"lat":-34.102729,"lng":-70.720708,"nombre":"Alameda","estado":"En Operación","tech":"Solar fotovoltaica","region":"OHiggins","mw":9,"segmento":"PMGD","almac":"No","year":2022},{"lat":-32.924086,"lng":-71.377506,"nombre":"Central Tabolango","estado":"En Operación","tech":"Solar fotovoltaica","region":"Valparaíso","mw":9,"segmento":"PMGD","almac":"No","year":2022},{"lat":-20.273865,"lng":-69.616981,"nombre":"El Carmelo (Ex Carmesí)","estado":"En Construcción","tech":"Solar fotovoltaica","region":"Tarapacá","mw":9,"segmento":"PMGD","almac":"No","year":2022},{"lat":-32.747548,"lng":-70.561389,"nombre":"El Triunfo","estado":"En Operación","tech":"Solar fotovoltaica","region":"Valparaíso","mw":9,"segmento":"PMGD","almac":"No","year":2022},{"lat":-35.832856,"lng":-71.698587,"nombre":"Genova","estado":"En Operación","tech":"Solar fotovoltaica","region":"Maule","mw":9,"segmento":"PMGD","almac":"No","year":2022},{"lat":-35.987892,"lng":-72.294809,"nombre":"La Vendimia","estado":"En Operación","tech":"Solar fotovoltaica","region":"Maule","mw":9,"segmento":"PMGD","almac":"No","year":2022},{"lat":-23.853346,"lng":-70.30355,"nombre":"Lince Solar","estado":"En Operación","tech":"Solar fotovoltaica","region":"Antofagasta","mw":9,"segmento":"PMGD","almac":"No","year":2022},{"lat":-33.85621,"lng":-70.596829,"nombre":"Margarita Solar","estado":"En Construcción","tech":"Solar fotovoltaica","region":"Metropolitana","mw":9,"segmento":"PMGD","almac":"No","year":2022},{"lat":-20,"lng":-70,"nombre":"Parque Fotovoltaico Andrómeda","estado":"En Operación","tech":"Solar fotovoltaica","region":"Tarapacá","mw":9,"segmento":"PMGD","almac":"No","year":2022},{"lat":-21.462904,"lng":-68.825033,"nombre":"Parque Fotovoltaico Cauce","estado":"En Operación","tech":"Solar fotovoltaica","region":"Antofagasta","mw":9,"segmento":"PMGD","almac":"No","year":2022},{"lat":-37.082546,"lng":-72.028026,"nombre":"Parque Solar Pequén","estado":"En Construcción","tech":"Solar fotovoltaica","region":"Ñuble","mw":9,"segmento":"PMGD","almac":"No","year":2022},{"lat":-23.43746,"lng":-70.006355,"nombre":"Planta Fotovoltaica Ckontor","estado":"En Construcción","tech":"Solar fotovoltaica","region":"Antofagasta","mw":9,"segmento":"PMG","almac":"No","year":2022},{"lat":-33.186025,"lng":-70.786196,"nombre":"Planta Fotovoltaica El Manzano","estado":"En Construcción","tech":"Solar fotovoltaica","region":"Metropolitana","mw":9,"segmento":"PMGD","almac":"No","year":2022},{"lat":-35.529255,"lng":-71.666588,"nombre":"Planta Fotovoltaica Maule X","estado":"En Operación","tech":"Solar fotovoltaica","region":"Maule","mw":9,"segmento":"PMGD","almac":"No","year":2022},{"lat":-26.870568,"lng":-70.106076,"nombre":"Planta Fotovoltaica Travesía","estado":"En Construcción","tech":"Solar fotovoltaica","region":"Atacama","mw":9,"segmento":"PMG","almac":"No","year":2022},{"lat":-35.160698,"lng":-71.374625,"nombre":"PMG Itahue","estado":"En Construcción","tech":"Solar fotovoltaica","region":"Maule","mw":9,"segmento":"PMG","almac":"No","year":2022},{"lat":-33.816285,"lng":-71.556665,"nombre":"PMGD Chagual Solar","estado":"En Construcción","tech":"Solar fotovoltaica","region":"Metropolitana","mw":9,"segmento":"PMGD","almac":"No","year":2022},{"lat":-33.390414,"lng":-70.8447,"nombre":"PMGD Espejo","estado":"En Construcción","tech":"Solar fotovoltaica","region":"Metropolitana","mw":9,"segmento":"PMGD","almac":"No","year":2022},{"lat":-34.964524,"lng":-71.158097,"nombre":"PMGD FV Barcelona","estado":"En Operación","tech":"Solar fotovoltaica","region":"Maule","mw":9,"segmento":"PMGD","almac":"No","year":2022},{"lat":-33.808373,"lng":-71.537841,"nombre":"PMGD Lirio Solar","estado":"En Construcción","tech":"Solar fotovoltaica","region":"Metropolitana","mw":9,"segmento":"PMGD","almac":"No","year":2022},{"lat":-37.456893,"lng":-72.391183,"nombre":"PMGD María Dolores (Ex María Dolores IX)","estado":"En Operación","tech":"Solar fotovoltaica","region":"Biobío","mw":9,"segmento":"Utility Scale","almac":"No","year":2022},{"lat":-26.425131,"lng":-70.104149,"nombre":"Proyecto Fotovoltaico Diego de Almagro","estado":"En Construcción","tech":"Solar fotovoltaica","region":"Atacama","mw":9,"segmento":"PMGD","almac":"No","year":2022},{"lat":-26.412874,"lng":-70.104894,"nombre":"Proyecto Fotovoltaico Modificación Sierra Soleada","estado":"En Construcción","tech":"Solar fotovoltaica","region":"Atacama","mw":9,"segmento":"PMGD","almac":"No","year":2022},{"lat":-33.636532,"lng":-70.868765,"nombre":"Talagante 2","estado":"En Operación","tech":"Solar fotovoltaica","region":"Metropolitana","mw":9,"segmento":"PMGD","almac":"No","year":2022},{"lat":-37.501983,"lng":-72.277139,"nombre":"FV Santa Pamela","estado":"En Operación","tech":"Solar fotovoltaica","region":"Biobío","mw":7.7,"segmento":"Utility Scale","almac":"No","year":2022},{"lat":-33.669261,"lng":-70.985671,"nombre":"San Antonio del Monte Sunlight","estado":"En Operación","tech":"Solar fotovoltaica","region":"Metropolitana","mw":7.2,"segmento":"Utility Scale","almac":"No","year":2022},{"lat":-32.485813,"lng":-71.257462,"nombre":"Cóndor La Ligua II","estado":"En Operación","tech":"Solar fotovoltaica","region":"Valparaíso","mw":6,"segmento":"PMGD","almac":"No","year":2022},{"lat":-33.473822,"lng":-71.10966,"nombre":"Parque Fotovoltaico La Rosa de Sharon","estado":"En Operación","tech":"Solar fotovoltaica","region":"Metropolitana","mw":6,"segmento":"PMGD","almac":"No","year":2022},{"lat":-33.308531,"lng":-71.439651,"nombre":"PFV Viñas del Sol (Ex Manzano II)","estado":"En Operación","tech":"Solar fotovoltaica","region":"Valparaíso","mw":6,"segmento":"Utility Scale","almac":"No","year":2022},{"lat":-36.016941,"lng":-71.631866,"nombre":"Planta Fotovoltaica Ballota","estado":"En Construcción","tech":"Solar fotovoltaica","region":"Maule","mw":6,"segmento":"PMGD","almac":"No","year":2022},{"lat":-36.645351,"lng":-72.078885,"nombre":"Quilmo Solar","estado":"En Operación","tech":"Solar fotovoltaica","region":"Ñuble","mw":5.2,"segmento":"PMGD","almac":"No","year":2022},{"lat":-36.551208,"lng":-72.098362,"nombre":"Casa de Lata (Ex PMGD Elvira 7)","estado":"En Operación","tech":"Solar fotovoltaica","region":"Ñuble","mw":5,"segmento":"PMGD","almac":"No","year":2022},{"lat":-36.551208,"lng":-72.098362,"nombre":"Elvira (Ex PMGD Elvira 7b)","estado":"En Pruebas","tech":"Solar fotovoltaica","region":"Ñuble","mw":4,"segmento":"PMGD","almac":"No","year":2022},{"lat":-34.41008,"lng":-71.629593,"nombre":"Planta Fotovoltaica Yellowstone – Etapa 1","estado":"En Construcción","tech":"Solar fotovoltaica","region":"OHiggins","mw":3.5,"segmento":"PMG","almac":"No","year":2022},{"lat":-34.41008,"lng":-71.629593,"nombre":"Planta Fotovoltaica Yellowstone – Etapa 2","estado":"En Construcción","tech":"Solar fotovoltaica","region":"OHiggins","mw":3.5,"segmento":"PMG","almac":"No","year":2022},{"lat":-33,"lng":-71,"nombre":"Ampliación Marín (Ex PMGD Mauco II)","estado":"En Operación","tech":"Solar fotovoltaica","region":"Valparaíso","mw":3,"segmento":"PMGD","almac":"No","year":2022},{"lat":-33.82244,"lng":-70.605082,"nombre":"Gabardo Ampliación","estado":"En Operación","tech":"Solar fotovoltaica","region":"Metropolitana","mw":3,"segmento":"PMGD","almac":"No","year":2022},{"lat":-36.54196,"lng":-72.056108,"nombre":"Cato Solar","estado":"En Operación","tech":"Solar fotovoltaica","region":"Ñuble","mw":2.6,"segmento":"PMGD","almac":"No","year":2022},{"lat":-33.319406,"lng":-71.583972,"nombre":"Planta Fotovoltaica Alghero Solar","estado":"Aprobado","tech":"Solar fotovoltaica","region":"Valparaíso","mw":7.7,"segmento":"PMGD","almac":"Sí","year":2022},{"lat":-34.335941,"lng":-70.994434,"nombre":"PFV Romeral Solar","estado":"Aprobado","tech":"Solar fotovoltaica","region":"OHiggins","mw":7.5,"segmento":"PMGD","almac":"No","year":2022},{"lat":-28.109597,"lng":-70.74772,"nombre":"Parque Fotovoltaico Sol de Vallenar","estado":"En Pruebas","tech":"Solar fotovoltaica","region":"Atacama","mw":100,"segmento":"Utility Scale","almac":"No","year":2022},{"lat":-30.153261,"lng":-71.195608,"nombre":"PMG Don Oscar Solar","estado":"En Operación","tech":"Solar fotovoltaica","region":"Coquimbo","mw":9.1,"segmento":"PMG","almac":"No","year":2022},{"lat":-34.90487,"lng":-71.143796,"nombre":"Amancay","estado":"En Construcción","tech":"Solar fotovoltaica","region":"Maule","mw":9,"segmento":"PMGD","almac":"No","year":2022},{"lat":-36.732803,"lng":-72.259021,"nombre":"Bulnes Solar","estado":"En Operación","tech":"Solar fotovoltaica","region":"Ñuble","mw":9,"segmento":"PMGD","almac":"No","year":2022},{"lat":-30.141909,"lng":-71.228728,"nombre":"Chercán Solar (Ex PMG Peñón Solar)","estado":"En Operación","tech":"Solar fotovoltaica","region":"Coquimbo","mw":9,"segmento":"PMG","almac":"No","year":2022},{"lat":-36.123197,"lng":-71.779355,"nombre":"Coihue","estado":"En Construcción","tech":"Solar fotovoltaica","region":"Maule","mw":9,"segmento":"PMGD","almac":"No","year":2022},{"lat":-36.168359,"lng":-71.842553,"nombre":"Frangel","estado":"En Construcción","tech":"Solar fotovoltaica","region":"Maule","mw":9,"segmento":"PMGD","almac":"No","year":2022},{"lat":-29.975155,"lng":-70.695537,"nombre":"Fundo San Isidro","estado":"En Construcción","tech":"Solar fotovoltaica","region":"Coquimbo","mw":9,"segmento":"PMGD","almac":"No","year":2022},{"lat":-34.234991,"lng":-70.802879,"nombre":"Los Lirios","estado":"En Operación","tech":"Solar fotovoltaica","region":"OHiggins","mw":9,"segmento":"PMGD","almac":"No","year":2022},{"lat":-36.051095,"lng":-71.988542,"nombre":"Miracea","estado":"En Construcción","tech":"Solar fotovoltaica","region":"Maule","mw":9,"segmento":"PMGD","almac":"No","year":2022},{"lat":-37.646978,"lng":-72.28127,"nombre":"Mulchén Santa Bárbara 1","estado":"En Construcción","tech":"Solar fotovoltaica","region":"Biobío","mw":9,"segmento":"PMGD","almac":"No","year":2022},{"lat":-34.352732,"lng":-71.129667,"nombre":"Parque Solar San Vicente TT P1","estado":"En Operación","tech":"Solar fotovoltaica","region":"OHiggins","mw":9,"segmento":"PMGD","almac":"No","year":2022},{"lat":-33.66263,"lng":-71.272512,"nombre":"Patagua (Ex Patagua XIII)","estado":"En Operación","tech":"Solar fotovoltaica","region":"Metropolitana","mw":9,"segmento":"PMGD","almac":"No","year":2022},{"lat":-27.284936,"lng":-70.406976,"nombre":"PFV Chamonate Solar (Ex PMGD Toledo Dos)","estado":"En Operación","tech":"Solar fotovoltaica","region":"Atacama","mw":9,"segmento":"PMGD","almac":"No","year":2022},{"lat":-33.731711,"lng":-70.902333,"nombre":"PFV Liebre del Verano","estado":"En Operación","tech":"Solar fotovoltaica","region":"Metropolitana","mw":9,"segmento":"PMGD","almac":"No","year":2022},{"lat":-35.583344,"lng":-71.546236,"nombre":"PMGD Cabimas","estado":"En Pruebas","tech":"Solar fotovoltaica","region":"Maule","mw":9,"segmento":"PMGD","almac":"No","year":2022},{"lat":-23.852519,"lng":-70.306575,"nombre":"PMGD Chungungo Solar","estado":"En Construcción","tech":"Solar fotovoltaica","region":"Antofagasta","mw":9,"segmento":"PMGD","almac":"No","year":2022},{"lat":-37.506829,"lng":-73.576253,"nombre":"PMGD Lebu Norte","estado":"En Construcción","tech":"Eólica","region":"Biobío","mw":9,"segmento":"PMGD","almac":"No","year":2022},{"lat":-39.327992,"lng":-72.506473,"nombre":"PMGD PFV Ancahual Solar (Ex Canelillo Solar)","estado":"En Operación","tech":"Solar fotovoltaica","region":"La Araucanía","mw":9,"segmento":"PMGD","almac":"No","year":2022},{"lat":-18.440283,"lng":-70.246692,"nombre":"PMGD PVP Chinchorro","estado":"En Operación","tech":"Solar fotovoltaica","region":"Arica y Parinacota","mw":9,"segmento":"PMGD","almac":"No","year":2022},{"lat":-27.364495,"lng":-70.198129,"nombre":"PMGD San Francisco","estado":"En Construcción","tech":"Solar fotovoltaica","region":"Atacama","mw":9,"segmento":"PMGD","almac":"No","year":2022},{"lat":-38.499509,"lng":-72.398219,"nombre":"PMGD Violeta Solar","estado":"En Construcción","tech":"Solar fotovoltaica","region":"La Araucanía","mw":9,"segmento":"PMGD","almac":"No","year":2022},{"lat":-34.445263,"lng":-70.935369,"nombre":"Puig Sunlight (Ex-Malloa Sunlight)","estado":"En Operación","tech":"Solar fotovoltaica","region":"OHiggins","mw":9,"segmento":"PMGD","almac":"No","year":2022},{"lat":-34.926917,"lng":-71.154254,"nombre":"Quilvo","estado":"En Operación","tech":"Solar fotovoltaica","region":"Maule","mw":9,"segmento":"PMGD","almac":"No","year":2022},{"lat":-34.984266,"lng":-71.165253,"nombre":"Tarwi","estado":"En Construcción","tech":"Solar fotovoltaica","region":"Maule","mw":9,"segmento":"PMGD","almac":"No","year":2022},{"lat":-34.956576,"lng":-71.947659,"nombre":"Vichuquén Santa Elena","estado":"En Construcción","tech":"Solar fotovoltaica","region":"Maule","mw":9,"segmento":"PMGD","almac":"No","year":2022},{"lat":-34.241923,"lng":-70.92213,"nombre":"Lo Conty","estado":"En Operación","tech":"Solar fotovoltaica","region":"OHiggins","mw":8.2,"segmento":"PMGD","almac":"No","year":2022},{"lat":-23.40646,"lng":-69.984081,"nombre":"PMGD Quebrada del Sol","estado":"En Construcción","tech":"Solar fotovoltaica","region":"Antofagasta","mw":7.6,"segmento":"PMGD","almac":"No","year":2022},{"lat":-34.203067,"lng":-70.678823,"nombre":"PMGD Parque Fotovoltaico Don Simón","estado":"En Operación","tech":"Solar fotovoltaica","region":"OHiggins","mw":7,"segmento":"PMGD","almac":"No","year":2022},{"lat":-33.670299,"lng":-71.011888,"nombre":"Ampliación Monte","estado":"En Operación","tech":"Solar fotovoltaica","region":"Metropolitana","mw":6,"segmento":"PMGD","almac":"No","year":2022},{"lat":-37.138497,"lng":-72.094465,"nombre":"Los Banos (Ex Esmeralda 6)","estado":"En Operación","tech":"Solar fotovoltaica","region":"Ñuble","mw":6,"segmento":"PMGD","almac":"No","year":2022},{"lat":-33.33269,"lng":-70.906187,"nombre":"PMGD Viñedos","estado":"En Construcción","tech":"Solar fotovoltaica","region":"Metropolitana","mw":6,"segmento":"PMGD","almac":"No","year":2022},{"lat":-31.142048,"lng":-71.088826,"nombre":"Emilia Solar","estado":"En Operación","tech":"Solar fotovoltaica","region":"Coquimbo","mw":3.8,"segmento":"PMG","almac":"No","year":2022},