[{"lat":-37.09651,"lng":-72.38933,"nombre":"Parque Fotovoltaico Monte Águila","estado":"En Construcción","tech":"Solar fotovoltaica","region":"Biobío","mw":240,"segmento":"Utility Scale","almac":"Sí","year":2026},{"lat":-32.82103,"lng":-70.63593,"nombre":"Juncal Solar","estado":"En Construcción","tech":"Solar fotovoltaica","region":"Valparaíso","mw":9,"segmento":"PMGD","almac":"Sí","year":2026},{"lat":-32.62854,"lng":-71.01194,"nombre":"Sistema de Generación Solar Fotovoltaica Loma Verde","estado":"En Calificación","tech":"Solar fotovoltaica","region":"Valparaíso","mw":90,"segmento":"Utility Scale","almac":"Sí","year":2026},{"lat":-35.69245,"lng":-71.49741,"nombre":"Planta fotovoltaica Semilleros","estado":"Aprobado","tech":"Solar fotovoltaica","region":"Maule","mw":9,"segmento":"PMGD","almac":"Sí","year":2026},{"lat":-33.9479,"lng":-71.71437,"nombre":"Parque Eólico Las Lilas","estado":"En Calificación","tech":"Eólica","region":"Biobío","mw":240,"segmento":"Utility Scale","almac":"Sí","year":2026},{"lat":-35.36733,"lng":-71.5918,"nombre":"Proyecto Sistema de Almacenamiento de Energía (BESS), en Sub","estado":"En Calificación","tech":"BESS","region":"Maule","mw":50,"segmento":"Utility Scale","almac":"Sí","year":2026},{"lat":-24.01757,"lng":-68.58639,"nombre":"Andes III (Etapa 1)","estado":"En Operación","tech":"Solar fotovoltaica","region":"Antofagasta","mw":175.9,"segmento":"Utility Scale","almac":"Sí","year":2026},{"lat":-37.74272,"lng":-72.21856,"nombre":"Parque Solar Altair","estado":"En Construcción","tech":"Solar fotovoltaica","region":"Biobío","mw":9,"segmento":"PMGD","almac":"No","year":2026},{"lat":-30,"lng":-71,"nombre":"Central Fotovoltaica Sol de Oro","estado":"Aprobado","tech":"Solar fotovoltaica","region":"Coquimbo","mw":7,"segmento":"PMGD","almac":"Sí","year":2026},{"lat":-34.20737,"lng":-70.87033,"nombre":"Planta Solar El Milagro","estado":"En Construcción","tech":"Solar fotovoltaica","region":"O’Higgins","mw":6,"segmento":"PMGD","almac":"Sí","year":2026},{"lat":-32.77383,"lng":-70.81326,"nombre":"Parque Fotovoltaico Cronos Solar","estado":"En Construcción","tech":"Solar fotovoltaica","region":"Valparaíso","mw":4.2,"segmento":"PMGD","almac":"Sí","year":2026},{"lat":-30.74659,"lng":-70.92925,"nombre":"Planta Solar Monte Patria III","estado":"En Calificación","tech":"Solar fotovoltaica","region":"Coquimbo","mw":9,"segmento":"PMGD","almac":"Sí","year":2026},{"lat":-37.15777,"lng":-72.34085,"nombre":"Parque Fotovoltaico Pillancó","estado":"Aprobado","tech":"Solar fotovoltaica","region":"Biobío","mw":208,"segmento":"Utility Scale","almac":"Sí","year":2026},{"lat":-30.60473,"lng":-70.92396,"nombre":"Ampliación y Modificaciones Parque Fotovoltaico Soles del No","estado":"En Calificación","tech":"Solar fotovoltaica","region":"Coquimbo","mw":200,"segmento":"Utility Scale","almac":"Sí","year":2026},{"lat":-35.53963,"lng":-71.51731,"nombre":"Parque fotovoltaico El colorado","estado":"En Calificación","tech":"Solar fotovoltaica","region":"Maule","mw":114,"segmento":"Utility Scale","almac":"Sí","year":2026},{"lat":-27.53253,"lng":-70.06703,"nombre":"Modificación Planta Solar Fotovoltaica Tres Cruces","estado":"En Calificación","tech":"Solar fotovoltaica","region":"Atacama","mw":150,"segmento":"Utility Scale","almac":"Sí","year":2026},{"lat":-20.27128,"lng":-69.75772,"nombre":"Pampa Solar del Tamarugal","estado":"En Construcción","tech":"Solar fotovoltaica","region":"Tarapacá","mw":120,"segmento":"Utility Scale","almac":"Sí","year":2026},{"lat":-45.52483,"lng":-72.10512,"nombre":"Ampliación Parque Eólico Alto Baguales","estado":"En Construcción","tech":"Eólica","region":"Aysén","mw":15,"segmento":"Utility Scale","almac":"No","year":2026},{"lat":-33.31091,"lng":-70.79751,"nombre":"Parque Fotovoltaico Matilde Solar","estado":"En Construcción","tech":"Solar fotovoltaica","region":"Metropolitana","mw":9,"segmento":"PMGD","almac":"Sí","year":2026},{"lat":-30.60473,"lng":-70.92396,"nombre":"Central Fotovoltaica Sol de La Virgen","estado":"Aprobado","tech":"Solar fotovoltaica","region":"Coquimbo","mw":6.2,"segmento":"PMGD","almac":"Sí","year":2026},{"lat":-33.4797,"lng":-70.66087,"nombre":"Sistema de Almacenamiento de Energía Bess Paicaví","estado":"Aprobado","tech":"BESS","region":"Metropolitana","mw":150,"segmento":"Utility Scale","almac":"Sí","year":2026},{"lat":-27.53253,"lng":-70.06703,"nombre":"Delva Subestación, Transmisión y Almacenamiento","estado":"En Calificación","tech":"BESS","region":"Atacama","mw":440,"segmento":"Utility Scale","almac":"Sí","year":2026},{"lat":-29.14254,"lng":-70.8937,"nombre":"Parque Fotovoltaico Los Rastrojos","estado":"En Construcción","tech":"Solar fotovoltaica","region":"Coquimbo","mw":141,"segmento":"Utility Scale","almac":"Sí","year":2026},{"lat":-40.63873,"lng":-73.18419,"nombre":"Parque Fotovoltaico Caipulli","estado":"En Construcción","tech":"Solar fotovoltaica","region":"Los Lagos","mw":9,"segmento":"PMGD","almac":"Sí","year":2026},{"lat":-32.91777,"lng":-71.25847,"nombre":"Parque Solar La Esmeralda","estado":"En Construcción","tech":"Solar fotovoltaica","region":"Valparaíso","mw":9,"segmento":"PMGD","almac":"Sí","year":2026},{"lat":-32.81007,"lng":-70.93256,"nombre":"Ana Solar","estado":"En Construcción","tech":"Solar fotovoltaica","region":"Valparaíso","mw":7.3,"segmento":"PMGD","almac":"Sí","year":2026},{"lat":-52.85313,"lng":-70.95593,"nombre":"Parque Eólico Faro del Sur","estado":"Aprobado","tech":"Eólica + H2","region":"Magallanes","mw":384,"segmento":"Utility Scale","almac":"No","year":2026},{"lat":-28.51099,"lng":-70.9189,"nombre":"Sistema de Almacenamiento de Energia y Linea de Transmision ","estado":"Aprobado","tech":"BESS","region":"Atacama","mw":80,"segmento":"Utility Scale","almac":"Sí","year":2026},{"lat":-32.62854,"lng":-71.01194,"nombre":"Central Fotovoltaica Sol del Melón","estado":"Aprobado","tech":"Solar fotovoltaica","region":"Valparaíso","mw":9,"segmento":"PMGD","almac":"Sí","year":2026},{"lat":-18.47732,"lng":-70.26342,"nombre":"Sistema de Almacenamiento de Energía BESS Chungará","estado":"Aprobado","tech":"BESS","region":"Arica y Parinacota","mw":50,"segmento":"Utility Scale","almac":"Sí","year":2026},{"lat":-34.47784,"lng":-71.09983,"nombre":"Parque Fotovoltaico Layla del Verano","estado":"Aprobado","tech":"Solar fotovoltaica","region":"O’Higgins","mw":83,"segmento":"Utility Scale","almac":"Sí","year":2026},{"lat":-30.60473,"lng":-70.92396,"nombre":"Sistema de Almacenamiento de Energía Eléctrica BESS Los Ñisñ","estado":"En Calificación","tech":"BESS","region":"Coquimbo","mw":90,"segmento":"Utility Scale","almac":"Sí","year":2026},{"lat":-20.31931,"lng":-70.04972,"nombre":"Parque Fotovoltaico con Capacidad de Almacenamiento Minerva","estado":"Aprobado","tech":"Solar fotovoltaica","region":"Tarapacá","mw":9,"segmento":"PMGD","almac":"Sí","year":2026},{"lat":-37.52302,"lng":-72.38635,"nombre":"Parque Fotovoltaico Inambú","estado":"En Calificación","tech":"Solar fotovoltaica","region":"Biobío","mw":21,"segmento":"Utility Scale","almac":"Sí","year":2026},{"lat":-26.26017,"lng":-69.98493,"nombre":"Sistema de Almacenamiento de Energía BESS Amanecer","estado":"En Calificación","tech":"BESS","region":"Atacama","mw":400,"segmento":"Utility Scale","almac":"Sí","year":2025},{"lat":-41.4007,"lng":-73.82395,"nombre":"Parque Eólico Mirador del Sur","estado":"En Calificación","tech":"Eólica","region":"Los Lagos","mw":320,"segmento":"Utility Scale","almac":"No","year":2025},{"lat":-41.06377,"lng":-73.09892,"nombre":"Sistema de almacenamiento de energía por baterías BESS El Mo","estado":"Aprobado","tech":"BESS","region":"Los Lagos","mw":300,"segmento":"Utility Scale","almac":"Sí","year":2025},{"lat":-34.83107,"lng":-71.11682,"nombre":"Parque Fotovoltaico Planchón","estado":"En Construcción","tech":"Solar fotovoltaica","region":"Maule","mw":75,"segmento":"Utility Scale","almac":"Sí","year":2025},{"lat":-22.39482,"lng":-69.58817,"nombre":"Parque Fotovoltaico y Línea de Transmisión para el Abastecim","estado":"En Calificación","tech":"Solar fotovoltaica","region":"Antofagasta","mw":20,"segmento":"Utility Scale","almac":"Sí","year":2025},{"lat":-34.25988,"lng":-70.85031,"nombre":"PFV Juan Gonzalo Solar","estado":"En Construcción","tech":"Solar fotovoltaica","region":"O’Higgins","mw":9,"segmento":"PMGD","almac":"Sí","year":2025},{"lat":-34.3159,"lng":-70.7514,"nombre":"PFV Lilium (Ex Lirios de Chumaquito)","estado":"En Operación","tech":"Solar fotovoltaica","region":"O’Higgins","mw":9,"segmento":"PMGD","almac":"No","year":2025},{"lat":-33.32146,"lng":-70.78974,"nombre":"Parque Fotovoltaico Isidora Solar","estado":"En Construcción","tech":"Solar fotovoltaica","region":"Metropolitana","mw":9,"segmento":"PMGD","almac":"Sí","year":2025},{"lat":-41.19802,"lng":-73.10147,"nombre":"Parque Eólico Trumao","estado":"En Calificación","tech":"Eólica","region":"Los Lagos","mw":320,"segmento":"Utility Scale","almac":"Sí","year":2025},{"lat":-27.00083,"lng":-69.87495,"nombre":"Línea de Transmisión y Central BESS Lena","estado":"Aprobado","tech":"BESS","region":"Atacama","mw":300,"segmento":"Utility Scale","almac":"Sí","year":2025},{"lat":-27.36232,"lng":-70.20168,"nombre":"Línea de transmisión y Central BESS Mila","estado":"Aprobado","tech":"BESS","region":"Atacama","mw":150,"segmento":"Utility Scale","almac":"Sí","year":2025},{"lat":-23.44514,"lng":-69.074,"nombre":"Parque Fotovoltaico Ckoirama Solar","estado":"En Calificación","tech":"Solar fotovoltaica","region":"Antofagasta","mw":300,"segmento":"Utility Scale","almac":"Sí","year":2025},{"lat":-33.4797,"lng":-70.66087,"nombre":"BESS Lo Prado","estado":"En Calificación","tech":"BESS","region":"Metropolitana","mw":508.8,"segmento":"Utility Scale","almac":"Sí","year":2025},{"lat":-34.47784,"lng":-71.09983,"nombre":"Parque Solar Fotovoltaico Agnis","estado":"Aprobado","tech":"Solar fotovoltaica","region":"O’Higgins","mw":9,"segmento":"PMGD","almac":"Sí","year":2025},{"lat":-37.63005,"lng":-72.35019,"nombre":"Parque Eólico Junquillos","estado":"Aprobado","tech":"Eólica","region":"Biobío","mw":472.5,"segmento":"Utility Scale","almac":"No","year":2025},{"lat":-33.4797,"lng":-70.66087,"nombre":"Parque Fotovoltaico Don Patricio","estado":"Aprobado","tech":"Solar fotovoltaica","region":"Metropolitana","mw":182,"segmento":"Utility Scale","almac":"Sí","year":2025},{"lat":-33.60636,"lng":-70.48337,"nombre":"Parque Solar Platero","estado":"Aprobado","tech":"Solar fotovoltaica","region":"Metropolitana","mw":7,"segmento":"PMG","almac":"Sí","year":2025},{"lat":-20.78332,"lng":-69.46315,"nombre":"Parque Fotovoltaico Ramaditas","estado":"Aprobado","tech":"Solar fotovoltaica","region":"Tarapacá","mw":360,"segmento":"Utility Scale","almac":"Sí","year":2025},{"lat":-24.03142,"lng":-69.77111,"nombre":"Sistema de Almacenamiento de Energía BESS y Línea de Transmi","estado":"En Calificación","tech":"BESS","region":"Antofagasta","mw":360,"segmento":"Utility Scale","almac":"Sí","year":2025},{"lat":-30.60473,"lng":-70.92396,"nombre":"Sistema de Almacenamiento de Energía (SAE) y Transmisión Puy","estado":"En Calificación","tech":"BESS","region":"Coquimbo","mw":40,"segmento":"Utility Scale","almac":"Sí","year":2025},{"lat":-39.92808,"lng":-72.79795,"nombre":"Central Térmica de Respaldo y Parque Fotovoltaico Lipingue","estado":"En Calificación","tech":"Solar fotovoltaica","region":"Los Ríos","mw":9,"segmento":"PMGD","almac":"No","year":2025},{"lat":-20.26528,"lng":-69.422,"nombre":"Parque Fotovoltaico con Capacidad de Almacenamiento Euclides","estado":"En Calificación","tech":"Solar fotovoltaica","region":"Tarapacá","mw":9,"segmento":"PMGD","almac":"Sí","year":2025},{"lat":-33.27153,"lng":-70.73767,"nombre":"Parque Fotovoltaico Amuleto","estado":"En Construcción","tech":"Solar fotovoltaica","region":"Metropolitana","mw":9,"segmento":"PMGD","almac":"Sí","year":2025},{"lat":-32.72487,"lng":-70.72009,"nombre":"Parque Fotovoltaico Doña Pierina","estado":"En Construcción","tech":"Solar fotovoltaica","region":"Valparaíso","mw":9,"segmento":"PMGD","almac":"Sí","year":2025},{"lat":-30.11845,"lng":-71.22551,"nombre":"Sistema de almacenamiento de energía por baterías BESS Las C","estado":"Aprobado","tech":"BESS","region":"Coquimbo","mw":400,"segmento":"Utility Scale","almac":"Sí","year":2025},{"lat":-35.44162,"lng":-71.34666,"nombre":"Parque Fotovoltaico El Retiro","estado":"En Calificación","tech":"Solar fotovoltaica","region":"Maule","mw":241.97,"segmento":"Utility Scale","almac":"Sí","year":2025},{"lat":-32.62854,"lng":-71.01194,"nombre":"Ampliación Parque Fotovoltaico Ritoque Solar","estado":"En Calificación","tech":"Solar fotovoltaica","region":"Valparaíso","mw":120,"segmento":"Utility Scale","almac":"No","year":2025},{"lat":-34.34587,"lng":-71.61011,"nombre":"Sistema de Almacenamiento de Energía (SAE) y Transmisión Auc","estado":"En Calificación","tech":"BESS","region":"O’Higgins","mw":40,"segmento":"Utility Scale","almac":"Sí","year":2025},{"lat":-27.53253,"lng":-70.06703,"nombre":"Planta Fotovoltaica Cayena","estado":"En Calificación","tech":"Solar fotovoltaica","region":"Atacama","mw":7,"segmento":"PMGD","almac":"Sí","year":2025},{"lat":-27.53253,"lng":-70.06703,"nombre":"Parque Fotovoltaico, de almacenamiento y línea de Transmisió","estado":"En Calificación","tech":"Solar fotovoltaica","region":"Atacama","mw":351,"segmento":"Utility Scale","almac":"Sí","year":2025},{"lat":-20.22306,"lng":-69.44753,"nombre":"Parque Fotovoltaico Semillero","estado":"En Calificación","tech":"Solar fotovoltaica","region":"Tarapacá","mw":57,"segmento":"Utility Scale","almac":"Sí","year":2025},{"lat":-18.43551,"lng":-70.26941,"nombre":"Parque Fotovoltaico Yal","estado":"Aprobado","tech":"Solar fotovoltaica","region":"Arica y Parinacota","mw":9,"segmento":"PMGD","almac":"Sí","year":2025},{"lat":-32.62854,"lng":-71.01194,"nombre":"Declaración de Impacto Ambiental: Modificación Proyecto Foto","estado":"En Calificación","tech":"Solar fotovoltaica","region":"Valparaíso","mw":0.4,"segmento":"PMGD","almac":"No","year":2025},{"lat":-27.53253,"lng":-70.06703,"nombre":"Parque Fotovoltaico El Pitotoy","estado":"En Calificación","tech":"Solar fotovoltaica","region":"Atacama","mw":100,"segmento":"Utility Scale","almac":"Sí","year":2025},{"lat":-28.17939,"lng":-70.65304,"nombre":"Proyecto Algarrobal 200 MW","estado":"En Construcción","tech":"Solar fotovoltaica","region":"Atacama","mw":200,"segmento":"Utility Scale","almac":"Sí","year":2025},{"lat":-34.36601,"lng":-70.97143,"nombre":"Sistema de Almacenamiento de Energía Dorado","estado":"Aprobado","tech":"BESS","region":"O’Higgins","mw":60,"segmento":"Utility Scale","almac":"Sí","year":2025},{"lat":-33.79899,"lng":-70.82392,"nombre":"Parque Solar Alfa","estado":"En Construcción","tech":"Solar fotovoltaica","region":"Metropolitana","mw":5.5,"segmento":"PMGD","almac":"No","year":2025},{"lat":-26.43049,"lng":-70.31918,"nombre":"Concorde (Ex Salar Dos)","estado":"En Operación","tech":"Solar fotovoltaica","region":"Atacama","mw":6,"segmento":"PMGD","almac":"No","year":2025},{"lat":-29.12324,"lng":-70.93582,"nombre":"Sistema de almacenamiento de energía por baterías BESS-Troya","estado":"Aprobado","tech":"BESS","region":"Atacama","mw":200,"segmento":"Utility Scale","almac":"Sí","year":2025},{"lat":-34.04351,"lng":-70.643,"nombre":"Parque Fotovoltaico Kaban","estado":"Aprobado","tech":"Solar fotovoltaica","region":"O’Higgins","mw":8.99,"segmento":"PMGD","almac":"Sí","year":2025},{"lat":-37.67427,"lng":-72.22294,"nombre":"Parque Fotovoltaico Neutrón","estado":"En Calificación","tech":"Solar fotovoltaica","region":"Biobío","mw":9,"segmento":"PMGD","almac":"Sí","year":2025},{"lat":-33.4797,"lng":-70.66087,"nombre":"Parque Fotovoltaico Bruno Solar","estado":"En Calificación","tech":"Solar fotovoltaica","region":"Metropolitana","mw":9,"segmento":"PMGD","almac":"Sí","year":2025},{"lat":-20.24418,"lng":-69.98003,"nombre":"Parque Fotovoltaico con Capacidad de Almacenamiento Pampa Pe","estado":"Aprobado","tech":"Solar fotovoltaica","region":"Tarapacá","mw":9,"segmento":"PMGD","almac":"Sí","year":2025},{"lat":-21.43138,"lng":-69.74095,"nombre":"ERNC Tarapacá","estado":"Aprobado","tech":"Solar fotovoltaica + Eólica","region":"Tarapacá","mw":226,"segmento":"Utility Scale","almac":"No","year":2025},{"lat":-30.50624,"lng":-71.1146,"nombre":"Parque Fotovoltaico Hanna","estado":"En Calificación","tech":"Solar fotovoltaica","region":"Coquimbo","mw":9,"segmento":"PMGD","almac":"Sí","year":2025},{"lat":-32.62854,"lng":-71.01194,"nombre":"Planta Fotovoltaica Laurel","estado":"En Calificación","tech":"Solar fotovoltaica","region":"Valparaíso","mw":7,"segmento":"PMGD","almac":"Sí","year":2025},{"lat":-28.82897,"lng":-70.80352,"nombre":"Sistema de Almacenamiento de Energía y Línea de Transmisión ","estado":"En Calificación","tech":"BESS","region":"Atacama","mw":180,"segmento":"Utility Scale","almac":"Sí","year":2025},{"lat":-20.80429,"lng":-69.44252,"nombre":"Parque Fotovoltaico Pampino","estado":"En Calificación","tech":"Solar fotovoltaica","region":"Tarapacá","mw":170,"segmento":"Utility Scale","almac":"Sí","year":2025},{"lat":-22.3689,"lng":-69.60127,"nombre":"CRCA La Pampina","estado":"En Construcción","tech":"Solar fotovoltaica","region":"Antofagasta","mw":159,"segmento":"Utility Scale","almac":"Sí","year":2025},{"lat":-40.14712,"lng":-73.0035,"nombre":"Parque Eólico Ovejera Sur","estado":"Aprobado","tech":"Eólica","region":"Los Ríos","mw":252,"segmento":"Utility Scale","almac":"No","year":2025},{"lat":-25,"lng":-70,"nombre":"Modificación de la Etapa II del Parque Eólico Antofagasta","estado":"Aprobado","tech":"Eólica","region":"Antofagasta","mw":462,"segmento":"Utility Scale","almac":"No","year":2025},{"lat":-29,"lng":-71,"nombre":"Sistema de Almacenamiento de Energía y Línea de Transmisión ","estado":"En Calificación","tech":"BESS","region":"Atacama","mw":200,"segmento":"Utility Scale","almac":"Sí","year":2025},{"lat":-40.78615,"lng":-73.35706,"nombre":"Parque Fotovoltaico Los Maquis","estado":"En Calificación","tech":"Solar fotovoltaica","region":"Los Lagos","mw":9,"segmento":"PMGD","almac":"Sí","year":2025},{"lat":-36.79324,"lng":-72.17368,"nombre":"Proyecto Sistema de Almacenamiento BESS Lucero y Línea de Tr","estado":"En Calificación","tech":"BESS","region":"Ñuble","mw":95,"segmento":"Utility Scale","almac":"Sí","year":2025},{"lat":-29,"lng":-71,"nombre":"Sistema de Almacenamiento de Energía Águila Andina","estado":"En Calificación","tech":"BESS","region":"Atacama","mw":200,"segmento":"Utility Scale","almac":"Sí","year":2025},{"lat":-28.25563,"lng":-70.82138,"nombre":"Parque Fotovoltaico El Aguilucho","estado":"En Calificación","tech":"Solar fotovoltaica","region":"Atacama","mw":25,"segmento":"Utility Scale","almac":"Sí","year":2025},{"lat":-27,"lng":-70,"nombre":"Parque Fotovoltaico Pimpollo","estado":"En Calificación","tech":"Solar fotovoltaica","region":"Atacama","mw":9,"segmento":"Utility Scale","almac":"Sí","year":2025},{"lat":-27,"lng":-70,"nombre":"Parque Fotovoltaico Peuco","estado":"En Calificación","tech":"Solar fotovoltaica","region":"Atacama","mw":300,"segmento":"Utility Scale","almac":"Sí","year":2025},{"lat":-40.32253,"lng":-73.00404,"nombre":"Sistema de Almacenamiento de Energía y Transmision Apacheta","estado":"En Calificación","tech":"BESS","region":"Los Ríos","mw":40,"segmento":"Utility Scale","almac":"Sí","year":2025},{"lat":-23.44514,"lng":-69.074,"nombre":"Sistema de Almacenamiento de Energía Águila Mora","estado":"En Calificación","tech":"BESS","region":"Antofagasta","mw":300,"segmento":"Utility Scale","almac":"Sí","year":2025},{"lat":-37,"lng":-72,"nombre":"Parque Fotovoltaico Manquel Solar","estado":"En Calificación","tech":"Solar fotovoltaica","region":"Biobío","mw":65,"segmento":"Utility Scale","almac":"Sí","year":2025},{"lat":-33,"lng":-71,"nombre":"Parque Solar Alvarado","estado":"En Calificación","tech":"Solar fotovoltaica","region":"Metropolitana","mw":9,"segmento":"PMGD","almac":"Sí","year":2025},{"lat":-27.88978,"lng":-70.18288,"nombre":"Copiapó Solar","estado":"En Construcción","tech":"Solar fotovoltaica","region":"Atacama","mw":255,"segmento":"Utility Scale","almac":"Sí","year":2025},{"lat":-28.40688,"lng":-70.77392,"nombre":"Parque Solar Fotovoltaico Tamarico Fase II","estado":"Aprobado","tech":"Solar fotovoltaica","region":"Atacama","mw":159.6,"segmento":"Utility Scale","almac":"Sí","year":2025},{"lat":-40.48619,"lng":-73.12346,"nombre":"Parque Fotovoltaico Chacayal","estado":"En Calificación","tech":"Solar fotovoltaica","region":"Los Lagos","mw":9,"segmento":"PMGD","almac":"Sí","year":2025},{"lat":-32.7685,"lng":-71.17845,"nombre":"PFV Charrabata 2","estado":"En Construcción","tech":"Solar fotovoltaica","region":"Valparaíso","mw":9,"segmento":"PMGD","almac":"Sí","year":2025},{"lat":-22.51556,"lng":-68.94341,"nombre":"PMGD Latorre Sunlight","estado":"En Construcción","tech":"Solar fotovoltaica","region":"Antofagasta","mw":4.9,"segmento":"PMGD","almac":"Sí","year":2025},{"lat":-37,"lng":-72,"nombre":"Parque Eólico Los Coihues","estado":"Aprobado","tech":"Eólica","region":"Ñuble","mw":338.4,"segmento":"Utility Scale","almac":"No","year":2025},{"lat":-34.31807,"lng":-71.7436,"nombre":"Energética Solar Marchihue","estado":"Aprobado","tech":"Solar fotovoltaica","region":"O’Higgins","mw":9,"segmento":"PMGD","almac":"Sí","year":2025},{"lat":-35.59116,"lng":-71.70987,"nombre":"Sistema de almacenamiento de energía y transmisión Yate","estado":"Aprobado","tech":"BESS","region":"Maule","mw":40,"segmento":"Utility Scale","almac":"Sí","year":2025},{"lat":-30.59207,"lng":-71.45954,"nombre":"PARQUE FOTOVOLTAICO SOLES DEL NORTE","estado":"Aprobado","tech":"Solar fotovoltaica","region":"Coquimbo","mw":130.5,"segmento":"Utility Scale","almac":"Sí","year":2025},{"lat":-25,"lng":-70,"nombre":"Proyecto Híbrido Solar, Eólico y de Almacenamiento de Energí","estado":"En Calificación","tech":"Solar fotovoltaica + Eólica","region":"Antofagasta","mw":766.28,"segmento":"Utility Scale","almac":"Sí","year":2025},{"lat":-33.49842,"lng":-70.85466,"nombre":"Parque Fotovoltaico Rinconada Solar","estado":"En Calificación","tech":"Solar fotovoltaica","region":"Metropolitana","mw":300,"segmento":"Utility Scale","almac":"Sí","year":2025},{"lat":-41.39318,"lng":-73.08549,"nombre":"Parque Fotovoltaico El Tepual Norte","estado":"En Calificación","tech":"Solar fotovoltaica","region":"Los Lagos","mw":9,"segmento":"PMGD","almac":"Sí","year":2025},{"lat":-26.3769,"lng":-70.09803,"nombre":"Parque Fotovoltaico Isidora Solar","estado":"En Calificación","tech":"Solar fotovoltaica","region":"Atacama","mw":55,"segmento":"Utility Scale","almac":"Sí","year":2025},{"lat":-24.91963,"lng":-69.93272,"nombre":"Parque Híbrido Pampas","estado":"En Construcción","tech":"Solar fotovoltaica + Eólica","region":"Antofagasta","mw":348.02,"segmento":"Utility Scale","almac":"Sí","year":2025},{"lat":-28.5102,"lng":-70.7525,"nombre":"Parque Fotovoltaico Corinto Solar","estado":"Aprobado","tech":"Solar fotovoltaica","region":"Atacama","mw":234.01,"segmento":"Utility Scale","almac":"Sí","year":2025},{"lat":-26.40092,"lng":-70.59395,"nombre":"Sistema de Almacenamiento de Energía Alianza","estado":"Aprobado","tech":"BESS","region":"Atacama","mw":90,"segmento":"Utility Scale","almac":"Sí","year":2025},{"lat":-30.8904,"lng":-71.61815,"nombre":"Punta de Talca","estado":"En Operación","tech":"Eólica","region":"Coquimbo","mw":79.24,"segmento":"Utility Scale","almac":"No","year":2025},{"lat":-34.13732,"lng":-70.69082,"nombre":"PSF BESS Los Quilos","estado":"En Construcción","tech":"Solar fotovoltaica","region":"O’Higgins","mw":9,"segmento":"PMGD","almac":"Sí","year":2025},{"lat":-33.68,"lng":-70.53,"nombre":"Parque Solar Fotovoltaico Los Maitenes","estado":"En Pruebas","tech":"Solar fotovoltaica","region":"Metropolitana","mw":5.5,"segmento":"PMGD","almac":"Sí","year":2025},{"lat":-35.1369,"lng":-71.36604,"nombre":"Sistema de Almacenamiento de Energía Altair","estado":"Aprobado","tech":"BESS","region":"Maule","mw":316,"segmento":"Utility Scale","almac":"Sí","year":2025},{"lat":-40.70753,"lng":-72.62372,"nombre":"Sistema de Almacenamiento de Energía y Transmisión Chiliques","estado":"Aprobado","tech":"BESS","region":"Los Lagos","mw":8,"segmento":"Utility Scale","almac":"Sí","year":2025},{"lat":-24.10149,"lng":-68.64169,"nombre":"Parque Fotovoltaico Los Durmientes","estado":"Aprobado","tech":"Solar fotovoltaica","region":"Antofagasta","mw":246.6,"segmento":"Utility Scale","almac":"Sí","year":2025},{"lat":-34,"lng":-71,"nombre":"Línea de Transmisión y Sistema BESS Elara","estado":"En Calificación","tech":"BESS","region":"O’Higgins","mw":90,"segmento":"Utility Scale","almac":"Sí","year":2025},{"lat":-32.41588,"lng":-71.34295,"nombre":"Parque Fotovoltaico Venus, El Romeral - Papudo","estado":"En Calificación","tech":"Solar fotovoltaica","region":"Valparaíso","mw":9,"segmento":"PMGD","almac":"Sí","year":2025},{"lat":-21.12093,"lng":-69.47924,"nombre":"Parque Fotovoltaico Llanos del Sol","estado":"Aprobado","tech":"Solar fotovoltaica","region":"Tarapacá","mw":381.8,"segmento":"Utility Scale","almac":"Sí","year":2025},{"lat":-40.21113,"lng":-72.74079,"nombre":"Parque Eólico El Rancho","estado":"En Calificación","tech":"Eólica","region":"Los Ríos","mw":216,"segmento":"Utility Scale","almac":"No","year":2025},{"lat":-28.5402,"lng":-70.83286,"nombre":"Planta Fotovoltaica Perales","estado":"Aprobado","tech":"Solar fotovoltaica","region":"Atacama","mw":8.3,"segmento":"PMGD","almac":"Sí","year":2025},{"lat":-34.47265,"lng":-70.89099,"nombre":"Proyecto Sistema de Almacenamiento de Energía (SAE) Volcán I","estado":"Aprobado","tech":"BESS","region":"O’Higgins","mw":40,"segmento":"Utility Scale","almac":"Sí","year":2025},{"lat":-28.15906,"lng":-70.68558,"nombre":"Parque Fotovoltaico Sol de Algarrobal","estado":"En Calificación","tech":"Solar fotovoltaica","region":"Atacama","mw":450,"segmento":"Utility Scale","almac":"Sí","year":2025},{"lat":-35,"lng":-72,"nombre":"Central Fotovoltaica Sol del Felino","estado":"En Calificación","tech":"Solar fotovoltaica","region":"Maule","mw":9,"segmento":"PMGD","almac":"Sí","year":2025},{"lat":-24.10144,"lng":-68.77473,"nombre":"Parque Fotovoltaico Cristales","estado":"En Construcción","tech":"Solar fotovoltaica","region":"Antofagasta","mw":400,"segmento":"Utility Scale","almac":"Sí","year":2025},{"lat":-37.27369,"lng":-72.53586,"nombre":"Parque Eólico Rinconada","estado":"Aprobado","tech":"Eólica","region":"Biobío","mw":258,"segmento":"Utility Scale","almac":"No","year":2025},{"lat":-36.76627,"lng":-72.14306,"nombre":"Parque Solar Aris","estado":"En Construcción","tech":"Solar fotovoltaica","region":"Ñuble","mw":9,"segmento":"PMGD","almac":"No","year":2025},{"lat":-40.10374,"lng":-72.80832,"nombre":"Parque Fotovoltaico Nueva Paillaco","estado":"En Construcción","tech":"Solar fotovoltaica","region":"Los Ríos","mw":4.5,"segmento":"PMGD","almac":"Sí","year":2025},{"lat":-37,"lng":-72,"nombre":"Parque Fotovoltaico Sidon Solar","estado":"En Calificación","tech":"Solar fotovoltaica","region":"Biobío","mw":150,"segmento":"Utility Scale","almac":"Sí","year":2025},{"lat":-41.36312,"lng":-73.57436,"nombre":"Parque Eólico Alto Los Muermos","estado":"En Calificación","tech":"Eólica","region":"Los Lagos","mw":430,"segmento":"Utility Scale","almac":"Sí","year":2025},{"lat":-34,"lng":-71,"nombre":"Parque Fotovoltaico Radal Solar","estado":"En Calificación","tech":"Solar fotovoltaica","region":"Valparaíso","mw":200,"segmento":"Utility Scale","almac":"Sí","year":2025},{"lat":-34,"lng":-72,"nombre":"Parque Solar Portezuelo","estado":"En Calificación","tech":"Solar fotovoltaica","region":"O’Higgins","mw":121,"segmento":"Utility Scale","almac":"Sí","year":2025},{"lat":-34.20553,"lng":-70.68128,"nombre":"Parque Solar Sol del Cobre","estado":"Aprobado","tech":"Solar fotovoltaica","region":"O’Higgins","mw":9,"segmento":"PMGD","almac":"Sí","year":2025},{"lat":-32.62854,"lng":-71.01194,"nombre":"Parque Fotovoltaico Limachino III","estado":"En Calificación","tech":"Solar fotovoltaica","region":"Valparaíso","mw":9,"segmento":"PMGD","almac":"Sí","year":2025},{"lat":-38.91288,"lng":-71.53925,"nombre":"Minicentral Hidroeléctrica Las Nieves","estado":"En Pruebas","tech":"Mini Hidráulica Pasada","region":"La Araucanía","mw":6.5,"segmento":"Utility Scale","almac":"No","year":2025},{"lat":-41,"lng":-73,"nombre":"Parque Fotovoltaico El Roble Norte","estado":"En Calificación","tech":"Solar fotovoltaica","region":"Los Lagos","mw":9,"segmento":"PMGD","almac":"Sí","year":2025},{"lat":-36,"lng":-72,"nombre":"Planta fotovoltaica Parral","estado":"En Calificación","tech":"Solar fotovoltaica","region":"Maule","mw":9,"segmento":"PMGD","almac":"Sí","year":2025},{"lat":-34.18147,"lng":-70.84143,"nombre":"Sistema de Almacenamiento de Energía Remanso","estado":"En Calificación","tech":"BESS","region":"O’Higgins","mw":150,"segmento":"Utility Scale","almac":"Sí","year":2025},{"lat":-36.60795,"lng":-72.04729,"nombre":"Proyecto Planta Solar San Juan","estado":"En Construcción","tech":"Solar fotovoltaica","region":"Ñuble","mw":9,"segmento":"PMGD","almac":"Sí","year":2025},{"lat":-40.92983,"lng":-73.1268,"nombre":"Purranque 2","estado":"En Construcción","tech":"Eólica","region":"Los Lagos","mw":9,"segmento":"PMGD","almac":"No","year":2025},{"lat":-33.83993,"lng":-70.74107,"nombre":"PMGD San Ramón","estado":"En Operación","tech":"Solar fotovoltaica","region":"Metropolitana","mw":9,"segmento":"PMGD","almac":"No","year":2025},{"lat":-38.43025,"lng":-71.90171,"nombre":"Sistema de Almacenamiento de Energía (SAE) Volcán Lanin","estado":"Aprobado","tech":"BESS","region":"La Araucanía","mw":40,"segmento":"Utility Scale","almac":"Sí","year":2025},{"lat":-18.43035,"lng":-70.26153,"nombre":"Parque Fotovoltaico Parina","estado":"Aprobado","tech":"Solar fotovoltaica","region":"Arica y Parinacota","mw":9,"segmento":"Utility Scale","almac":"Sí","year":2025},{"lat":-34,"lng":-71,"nombre":"Parque Fotovoltaico Gabriela Solar","estado":"En Calificación","tech":"Solar fotovoltaica","region":"Metropolitana","mw":9,"segmento":"PMGD","almac":"Sí","year":2025},{"lat":-20.25224,"lng":-69.66839,"nombre":"Sistema de Almacenamiento de Energía y Linea de Transmisión ","estado":"Aprobado","tech":"BESS","region":"Tarapacá","mw":460,"segmento":"Utility Scale","almac":"Sí","year":2025},{"lat":-32,"lng":-71,"nombre":"PARQUE FOTOVOLTAICO LOS BOLDOS","estado":"En Calificación","tech":"Solar fotovoltaica","region":"Valparaíso","mw":240.8,"segmento":"Utility Scale","almac":"Sí","year":2025},{"lat":-26.99917,"lng":-69.8766,"nombre":"Central Fotovoltaica Inca de Varas II","estado":"Aprobado","tech":"Solar fotovoltaica","region":"Atacama","mw":46.33,"segmento":"Utility Scale","almac":"Sí","year":2025},{"lat":-22.45828,"lng":-68.85266,"nombre":"Parque Fotovoltaico con capacidad de almacenamiento Valle de","estado":"En Calificación","tech":"Solar fotovoltaica","region":"Antofagasta","mw":9,"segmento":"PMGD","almac":"Sí","year":2025},{"lat":-33.07508,"lng":-70.75872,"nombre":"Parque Fotovoltaico y Línea de Transmisión Colachi","estado":"En Calificación","tech":"Solar fotovoltaica","region":"Metropolitana","mw":136.1,"segmento":"Utility Scale","almac":"Sí","year":2025},{"lat":-32.39661,"lng":-71.0304,"nombre":"Parque Fotovoltaico Cabildo Solar","estado":"Aprobado","tech":"Solar fotovoltaica","region":"Valparaíso","mw":50,"segmento":"Utility Scale","almac":"Sí","year":2025},{"lat":-24.94103,"lng":-69.87039,"nombre":"Modificación de proyecto Parque Eólico Horizonte","estado":"Aprobado","tech":"Eólica","region":"Antofagasta","mw":180,"segmento":"Utility Scale","almac":"No","year":2025},{"lat":-25.02209,"lng":-69.90819,"nombre":"Arena BESS","estado":"En Pruebas","tech":"BESS","region":"Antofagasta","mw":220,"segmento":"Utility Scale","almac":"Sí","year":2025},{"lat":-28.82817,"lng":-70.81409,"nombre":"CRCA Luna de Verano","estado":"En Construcción","tech":"Solar fotovoltaica","region":"Atacama","mw":82,"segmento":"Utility Scale","almac":"Sí","year":2025},{"lat":-36.73742,"lng":-72.2835,"nombre":"Parque Fotovoltaico Aura, Bulnes","estado":"En Calificación","tech":"Solar fotovoltaica","region":"Ñuble","mw":9,"segmento":"PMGD","almac":"Sí","year":2025},{"lat":-30.22245,"lng":-71.27849,"nombre":"Parque Fotovoltaico El Peñón","estado":"En Construcción","tech":"Solar fotovoltaica","region":"Coquimbo","mw":9,"segmento":"PMGD","almac":"No","year":2025},{"lat":-37.14308,"lng":-72.15583,"nombre":"Parque Eólico Las Fresias","estado":"En Calificación","tech":"Eólica","region":"Ñuble","mw":310,"segmento":"Utility Scale","almac":"Sí","year":2025},{"lat":-33,"lng":-74,"nombre":"Parque Fotovoltaico Catalina Solar","estado":"En Calificación","tech":"Solar fotovoltaica","region":"Metropolitana","mw":9,"segmento":"PMGD","almac":"Sí","year":2025},{"lat":-36.19737,"lng":-72.39681,"nombre":"Parque Eólico El Sauzal","estado":"En Calificación","tech":"Eólica","region":"Ñuble","mw":360,"segmento":"Utility Scale","almac":"No","year":2025},{"lat":-34.81346,"lng":-71.75424,"nombre":"Planta Fotovoltaica Lolol","estado":"En Calificación","tech":"Solar fotovoltaica","region":"O’Higgins","mw":69.8,"segmento":"Utility Scale","almac":"Sí","year":2025},{"lat":-36.316,"lng":-71.97331,"nombre":"Parque Eólico San Carlos","estado":"Aprobado","tech":"Eólica","region":"Ñuble","mw":187.5,"segmento":"Utility Scale","almac":"Sí","year":2025},{"lat":-35.60401,"lng":-71.78335,"nombre":"Millahue","estado":"En Operación","tech":"Solar fotovoltaica","region":"Maule","mw":9,"segmento":"PMGD","almac":"No","year":2025},{"lat":-33.42471,"lng":-71.05082,"nombre":"Parque Fotovoltaico Chicha Solar","estado":"En Construcción","tech":"Solar fotovoltaica","region":"Metropolitana","mw":9,"segmento":"Utility Scale","almac":"Sí","year":2025},{"lat":-37.556,"lng":-72.65785,"nombre":"Parque Solar Gamma","estado":"En Construcción","tech":"Solar fotovoltaica","region":"Biobío","mw":8,"segmento":"PMGD","almac":"No","year":2025},{"lat":-38.54094,"lng":-72.46237,"nombre":"Sistema de Almacenamiento de Energía (SAE) Volcán Chaitén","estado":"Aprobado","tech":"BESS","region":"La Araucanía","mw":8,"segmento":"Utility Scale","almac":"Sí","year":2025},{"lat":-32.3552,"lng":-71.30575,"nombre":"Casas Viejas Solar","estado":"Aprobado","tech":"Solar fotovoltaica","region":"Valparaíso","mw":105,"segmento":"Utility Scale","almac":"Sí","year":2025},{"lat":-34.47784,"lng":-71.09983,"nombre":"Parque Fotovoltaico Hacienda Tagua Tagua","estado":"Aprobado","tech":"Solar fotovoltaica","region":"O’Higgins","mw":9,"segmento":"PMGD","almac":"Sí","year":2025},{"lat":-24.98294,"lng":-70.0022,"nombre":"Parque Híbrido Eólico y Solar Vientos de Taltal","estado":"En Calificación","tech":"Solar fotovoltaica + Eólica","region":"Antofagasta","mw":539,"segmento":"Utility Scale","almac":"Sí","year":2025},{"lat":-37,"lng":-72,"nombre":"Parque Fotovoltaico Monterrico Solar","estado":"En Calificación","tech":"Solar fotovoltaica","region":"Ñuble","mw":200,"segmento":"Utility Scale","almac":"Sí","year":2025},{"lat":-30.60473,"lng":-70.92396,"nombre":"Sistema de Almacenamiento de Energía Eléctrica Tipo BESS - C","estado":"En Calificación","tech":"BESS","region":"Coquimbo","mw":200,"segmento":"Utility Scale","almac":"Sí","year":2025},{"lat":-31.89035,"lng":-70.83754,"nombre":"Planta de Almacenamiento de Energía BESS HUAÑIL","estado":"Aprobado","tech":"BESS","region":"Coquimbo","mw":200,"segmento":"Utility Scale","almac":"Sí","year":2025},{"lat":-24.80197,"lng":-69.84502,"nombre":"Parque Eólico Pampa Fidelia Etapa 2","estado":"En Construcción","tech":"Eólica","region":"Antofagasta","mw":180,"segmento":"Utility Scale","almac":"Sí","year":2025},{"lat":-36.97453,"lng":-72.14566,"nombre":"Parque Eólico Pemuco","estado":"En Construcción","tech":"Eólica","region":"Ñuble","mw":165,"segmento":"Utility Scale","almac":"No","year":2025},{"lat":-24.80197,"lng":-69.84502,"nombre":"Parque Eólico Pampa Fidelia Etapa 1","estado":"En Pruebas","tech":"Eólica","region":"Antofagasta","mw":126,"segmento":"Utility Scale","almac":"Sí","year":2025},{"lat":-36,"lng":-72,"nombre":"Sistema de Almacenamiento de Energía BESS y Línea de Transmi","estado":"Aprobado","tech":"BESS","region":"Ñuble","mw":20,"segmento":"Utility Scale","almac":"Sí","year":2025},{"lat":-33.50425,"lng":-71.55034,"nombre":"Planta Fotovoltaica Monza Solar","estado":"En Construcción","tech":"Solar fotovoltaica","region":"Valparaíso","mw":6.5,"segmento":"PMGD","almac":"Sí","year":2025},{"lat":-40.13088,"lng":-72.86065,"nombre":"Parque Fotovoltaico Pichirropulli","estado":"En Construcción","tech":"Solar fotovoltaica","region":"Los Ríos","mw":6,"segmento":"PMGD","almac":"Sí","year":2025},{"lat":-35.53963,"lng":-71.51731,"nombre":"Parque Fotovoltaico El Coipo Solar","estado":"En Calificación","tech":"Solar fotovoltaica","region":"Maule","mw":120,"segmento":"Utility Scale","almac":"Sí","year":2025},{"lat":-34,"lng":-71,"nombre":"Parque Solar Fotovoltaico Leyda y Sistema de Almacenamiento ","estado":"En Calificación","tech":"Solar fotovoltaica","region":"Valparaíso","mw":9,"segmento":"PMGD","almac":"Sí","year":2025},{"lat":-36,"lng":-72,"nombre":"Planta Solar El Cardonal","estado":"En Calificación","tech":"Solar fotovoltaica","region":"Maule","mw":5,"segmento":"PMGD","almac":"Sí","year":2025},{"lat":-20.31481,"lng":-69.74085,"nombre":"Sistema de Almacenamiento de Energía (BESS) en Subestación E","estado":"Aprobado","tech":"BESS","region":"Tarapacá","mw":125,"segmento":"Utility Scale","almac":"Sí","year":2025},{"lat":-23,"lng":-70,"nombre":"Sistema de Almacenamiento de Energía (BESS) en Subestación E","estado":"Aprobado","tech":"BESS","region":"Antofagasta","mw":225,"segmento":"Utility Scale","almac":"Sí","year":2025},{"lat":-22.91834,"lng":-69.10677,"nombre":"Sistema de Almacenamiento de Energía (BESS) en Subestación E","estado":"Aprobado","tech":"BESS","region":"Antofagasta","mw":50,"segmento":"Utility Scale","almac":"Sí","year":2025},{"lat":-35.53963,"lng":-71.51731,"nombre":"Parque Fotovoltaico Hemera","estado":"En Calificación","tech":"Solar fotovoltaica","region":"Maule","mw":90,"segmento":"Utility Scale","almac":"Sí","year":2025},{"lat":-35,"lng":-71,"nombre":"Parque Fotovoltaico Los Naranjos","estado":"En Calificación","tech":"Solar fotovoltaica","region":"O’Higgins","mw":9,"segmento":"PMGD","almac":"Sí","year":2025},{"lat":-22.26272,"lng":-69.56797,"nombre":"Parque Fotovoltaico Estepa Solar","estado":"En Pruebas","tech":"Solar fotovoltaica","region":"Antofagasta","mw":202.4,"segmento":"Utility Scale","almac":"Sí","year":2025},{"lat":-33.49795,"lng":-71.53176,"nombre":"Planta Fotovoltaica Módena Solar","estado":"En Construcción","tech":"Solar fotovoltaica","region":"Valparaíso","mw":9,"segmento":"PMGD","almac":"Sí","year":2025},{"lat":-32.45532,"lng":-71.27344,"nombre":"Sistema de Almacenamiento de Energía Kanut","estado":"En Calificación","tech":"BESS","region":"Valparaíso","mw":381,"segmento":"Utility Scale","almac":"Sí","year":2025},{"lat":-30.60473,"lng":-70.92396,"nombre":"Parque Fotovoltaico Lagunillas 94,5 MW y Línea Eléctrica Lag","estado":"Aprobado","tech":"Solar fotovoltaica","region":"Coquimbo","mw":94.5,"segmento":"Utility Scale","almac":"Sí","year":2025},{"lat":-32.78703,"lng":-71.45343,"nombre":"Planta Fotovoltaica Vernazza","estado":"Aprobado","tech":"Solar fotovoltaica","region":"Valparaíso","mw":150,"segmento":"Utility Scale","almac":"Sí","year":2025},{"lat":-33.69116,"lng":-71.24104,"nombre":"Sistema de almacenamiento de energía BESS y línea de transmi","estado":"Aprobado","tech":"BESS","region":"Metropolitana","mw":120,"segmento":"Utility Scale","almac":"Sí","year":2025},{"lat":-40.67498,"lng":-73.08708,"nombre":"Parque Fotovoltaico El Almud","estado":"Aprobado","tech":"Solar fotovoltaica","region":"Los Lagos","mw":7,"segmento":"PMGD","almac":"Sí","year":2025},{"lat":-34.55321,"lng":-70.95794,"nombre":"Parque Fotovoltaico Cotinga","estado":"Aprobado","tech":"Solar fotovoltaica","region":"O’Higgins","mw":9,"segmento":"PMGD","almac":"Sí","year":2025},{"lat":-35.45321,"lng":-71.72411,"nombre":"Parque Fotovoltaico El Prado","estado":"Aprobado","tech":"Solar fotovoltaica","region":"Maule","mw":9,"segmento":"PMGD","almac":"Sí","year":2025},{"lat":-23.85335,"lng":-70.30403,"nombre":"Parque fotovoltaico con capacidad de almacenamiento Gaviota ","estado":"Aprobado","tech":"Solar fotovoltaica","region":"Antofagasta","mw":9,"segmento":"PMGD","almac":"Sí","year":2025},{"lat":-30.80656,"lng":-71.64751,"nombre":"Parque Eólico Cerro Los Loros","estado":"En Calificación","tech":"Eólica","region":"Coquimbo","mw":79.2,"segmento":"Utility Scale","almac":"Sí","year":2025},{"lat":-34.34769,"lng":-70.82645,"nombre":"Sistema de Almacenamiento de Energía y Transmisión Ollague","estado":"Aprobado","tech":"BESS","region":"O’Higgins","mw":40,"segmento":"Utility Scale","almac":"Sí","year":2025},{"lat":-36,"lng":-72,"nombre":"Parque Eólico Andino Suiza","estado":"En Calificación","tech":"Eólica","region":"Ñuble","mw":115.2,"segmento":"Utility Scale","almac":"Sí","year":2025},{"lat":-28,"lng":-71,"nombre":"Parque Fotovoltaico Las Cunas","estado":"En Calificación","tech":"Solar fotovoltaica","region":"Atacama","mw":540,"segmento":"Utility Scale","almac":"Sí","year":2024},{"lat":-37.84695,"lng":-72.62862,"nombre":"Parque Eólico Cancura","estado":"En Construcción","tech":"Eólica","region":"La Araucanía","mw":33.6,"segmento":"Utility Scale","almac":"No","year":2024},{"lat":-33.01161,"lng":-71.32312,"nombre":"Planta Fotovoltaica Limachino","estado":"En Construcción","tech":"Solar fotovoltaica","region":"Valparaíso","mw":9,"segmento":"PMGD","almac":"No","year":2024},{"lat":-34.16894,"lng":-70.83642,"nombre":"PSF Doña Florinda (Ex PSF San Ramón)","estado":"En Pruebas","tech":"Solar fotovoltaica","region":"O’Higgins","mw":9,"segmento":"PMGD","almac":"Sí","year":2024},{"lat":-40.57834,"lng":-73.08636,"nombre":"Sistema de Almacenamiento de Energía (SAE) Volcán Sollipulli","estado":"Aprobado","tech":"BESS","region":"Los Lagos","mw":40,"segmento":"Utility Scale","almac":"Sí","year":2024},{"lat":-40.57972,"lng":-73.0857,"nombre":"Parque Solar Cañal Bajo","estado":"Aprobado","tech":"Solar fotovoltaica","region":"Los Lagos","mw":9,"segmento":"PMGD","almac":"Sí","year":2024},{"lat":-36.97947,"lng":-72.2723,"nombre":"Planta Fotovoltaica Las Mellizas","estado":"En Calificación","tech":"Solar fotovoltaica","region":"Ñuble","mw":173,"segmento":"Utility Scale","almac":"Sí","year":2024},{"lat":-34,"lng":-71,"nombre":"Parque Fotovoltaico Hortensia Solar","estado":"Aprobado","tech":"Solar fotovoltaica","region":"Metropolitana","mw":9,"segmento":"PMGD","almac":"Sí","year":2024},{"lat":-27.4464,"lng":-70.44787,"nombre":"Adecuación Proyecto Parque Candelaria Solar y su Línea de Tr","estado":"Aprobado","tech":"BESS","region":"Atacama","mw":0,"segmento":"Utility Scale","almac":"Sí","year":2024},{"lat":-32.45539,"lng":-71.27442,"nombre":"Sistema de Almacenamiento de Energía BESS Atardecer","estado":"En Calificación","tech":"BESS","region":"Valparaíso","mw":150,"segmento":"Utility Scale","almac":"Sí","year":2024},{"lat":-30.71757,"lng":-70.78573,"nombre":"Línea de Transmisión y Central BESS Halcón 15","estado":"Aprobado","tech":"BESS","region":"Coquimbo","mw":12,"segmento":"Utility Scale","almac":"Sí","year":2024},{"lat":-37.09183,"lng":-72.32517,"nombre":"Sistema de Almacenamiento de Energía y Línea de Transmisión ","estado":"Aprobado","tech":"BESS","region":"Biobío","mw":200,"segmento":"Utility Scale","almac":"Sí","year":2024},{"lat":-41.11414,"lng":-73.21866,"nombre":"Parque Eólico Vientos del Lago","estado":"En Calificación","tech":"Eólica","region":"Los Lagos","mw":132,"segmento":"Utility Scale","almac":"No","year":2024},{"lat":-33.71694,"lng":-70.68788,"nombre":"Sistema de Almacenamiento de Energía y Línea de Transmisión ","estado":"Aprobado","tech":"BESS","region":"Metropolitana","mw":333,"segmento":"Utility Scale","almac":"Sí","year":2024},{"lat":-32.47318,"lng":-71.33614,"nombre":"Parque Solar Pullalli","estado":"En Calificación","tech":"Solar fotovoltaica","region":"Valparaíso","mw":299,"segmento":"Utility Scale","almac":"Sí","year":2024},{"lat":-29.35479,"lng":-71.02994,"nombre":"Parque Solar Fotovoltaico Punta del Viento","estado":"En Construcción","tech":"Solar fotovoltaica","region":"Coquimbo","mw":145,"segmento":"Utility Scale","almac":"No","year":2024},{"lat":-33.06877,"lng":-70.68765,"nombre":"Parque Fotovoltaico Libélula","estado":"En Pruebas","tech":"Solar fotovoltaica","region":"Metropolitana","mw":139.7,"segmento":"Utility Scale","almac":"Sí","year":2024},{"lat":-34.12255,"lng":-70.76211,"nombre":"Parque Fotovoltaico Catalina del Verano","estado":"Aprobado","tech":"Solar fotovoltaica","region":"O’Higgins","mw":60,"segmento":"Utility Scale","almac":"Sí","year":2024},{"lat":-29.93098,"lng":-71.16235,"nombre":"Parque Solar La Polvareda","estado":"Aprobado","tech":"Solar fotovoltaica","region":"Coquimbo","mw":9,"segmento":"PMGD","almac":"Sí","year":2024},{"lat":-32.81807,"lng":-70.99034,"nombre":"Sistema de almacenamiento de energía con baterías - BESS La ","estado":"En Calificación","tech":"BESS","region":"Valparaíso","mw":250,"segmento":"Utility Scale","almac":"Sí","year":2024},{"lat":-34.19764,"lng":-70.78981,"nombre":"Parque Solar Fotovoltaico Vulcano","estado":"Aprobado","tech":"Solar fotovoltaica","region":"O’Higgins","mw":9,"segmento":"PMGD","almac":"Sí","year":2024},{"lat":-36.16047,"lng":-72.35572,"nombre":"Parque Eólico Loncualhue","estado":"En Calificación","tech":"Eólica","region":"Maule","mw":316.8,"segmento":"Utility Scale","almac":"No","year":2024},{"lat":-38.57247,"lng":-72.3303,"nombre":"Parque Fotovoltaico Solango","estado":"En Calificación","tech":"Solar fotovoltaica","region":"La Araucanía","mw":8.2,"segmento":"Utility Scale","almac":"Sí","year":2024},{"lat":-34.35945,"lng":-71.5173,"nombre":"Parque Fotovoltaico Andino Los Maitenes","estado":"Aprobado","tech":"Solar fotovoltaica","region":"O’Higgins","mw":84,"segmento":"Utility Scale","almac":"Sí","year":2024},{"lat":-20.23648,"lng":-69.67133,"nombre":"PFV Qanqiña","estado":"En Construcción","tech":"Solar fotovoltaica","region":"Tarapacá","mw":80,"segmento":"Utility Scale","almac":"No","year":2024},{"lat":-40.9182,"lng":-73.13202,"nombre":"Purranque 1","estado":"En Construcción","tech":"Eólica","region":"Los Lagos","mw":9,"segmento":"PMGD","almac":"No","year":2024},{"lat":-37.44718,"lng":-72.42378,"nombre":"Velasco Solar (Ex San Antonio Solar)","estado":"En Operación","tech":"Solar fotovoltaica","region":"Biobío","mw":5,"segmento":"PMGD","almac":"No","year":2024},{"lat":-35.60098,"lng":-71.58922,"nombre":"El Cerrillo Solar","estado":"Aprobado","tech":"Solar fotovoltaica","region":"Maule","mw":88,"segmento":"Utility Scale","almac":"Sí","year":2024},{"lat":-36.0913,"lng":-71.96626,"nombre":"Parque Solar BESS Cuyumillaco","estado":"Aprobado","tech":"Solar fotovoltaica","region":"Maule","mw":90,"segmento":"Utility Scale","almac":"Sí","year":2024},{"lat":-28.25556,"lng":-70.81783,"nombre":"Línea de Transmisión y Central BESS Halcón 8","estado":"Aprobado","tech":"BESS","region":"Atacama","mw":25,"segmento":"Utility Scale","almac":"Sí","year":2024},{"lat":-33.10258,"lng":-70.80565,"nombre":"Parque Fotovoltaico Polpaico Solar","estado":"Aprobado","tech":"Solar fotovoltaica","region":"Metropolitana","mw":9,"segmento":"PMG","almac":"Sí","year":2024},{"lat":-34.40201,"lng":-71.66578,"nombre":"Parque Fotovoltaico Alcones","estado":"En Construcción","tech":"Solar fotovoltaica","region":"O’Higgins","mw":90,"segmento":"Utility Scale","almac":"No","year":2024},{"lat":-32.8266,"lng":-70.98308,"nombre":"Planta Fotovoltaica Livorno Solar","estado":"En Construcción","tech":"Solar fotovoltaica","region":"Valparaíso","mw":5,"segmento":"PMGD","almac":"Sí","year":2024},{"lat":-33.79447,"lng":-70.70185,"nombre":"Ampelo Solar","estado":"En Construcción","tech":"Solar fotovoltaica","region":"Metropolitana","mw":3.4,"segmento":"PMGD","almac":"No","year":2024},{"lat":-33.97948,"lng":-70.67996,"nombre":"Artemisa Solar","estado":"En Operación","tech":"Solar fotovoltaica","region":"O’Higgins","mw":3,"segmento":"PMGD","almac":"No","year":2024},{"lat":-33.34108,"lng":-70.81606,"nombre":"Planta Fotovoltaica Belén","estado":"En Operación","tech":"Solar fotovoltaica","region":"Metropolitana","mw":6,"segmento":"PMGD","almac":"No","year":2024},{"lat":-27.84987,"lng":-70.77512,"nombre":"Sistema de Almacenamiento de Energía y Linea de Transmisión ","estado":"Aprobado","tech":"BESS","region":"Atacama","mw":405,"segmento":"Utility Scale","almac":"Sí","year":2024},{"lat":-35.4963,"lng":-71.64887,"nombre":"Planta Solar Carmencita","estado":"Aprobado","tech":"Solar fotovoltaica","region":"Maule","mw":9,"segmento":"PMGD","almac":"No","year":2024},{"lat":-36.02079,"lng":-71.92872,"nombre":"Sistema de Almacenamiento de Energía (SAE) Volcán Guallatiri","estado":"Aprobado","tech":"BESS","region":"Maule","mw":8,"segmento":"Utility Scale","almac":"Sí","year":2024},{"lat":-33.66787,"lng":-71.20567,"nombre":"Parque Fotovoltaico Ostolazas","estado":"Aprobado","tech":"Solar fotovoltaica","region":"Metropolitana","mw":9,"segmento":"PMGD","almac":"Sí","year":2024},{"lat":-33.5731,"lng":-70.78704,"nombre":"Parque Fotovoltaico Queltehue","estado":"Aprobado","tech":"Solar fotovoltaica","region":"Metropolitana","mw":9,"segmento":"PMGD","almac":"Sí","year":2024},{"lat":-20.88701,"lng":-69.49844,"nombre":"Parque Fotovoltaico Solar Oriente","estado":"Aprobado","tech":"Solar fotovoltaica","region":"Tarapacá","mw":581.46,"segmento":"Utility Scale","almac":"Sí","year":2024},{"lat":-27.08504,"lng":-70.77511,"nombre":"Línea de Transmisión y Sistema BESS Cálice","estado":"Aprobado","tech":"BESS","region":"Atacama","mw":105,"segmento":"Utility Scale","almac":"Sí","year":2024},{"lat":-28.52855,"lng":-70.75458,"nombre":"Parque Fotovoltaico El Olivar","estado":"En Construcción","tech":"Solar fotovoltaica","region":"Atacama","mw":9,"segmento":"PMG","almac":"No","year":2024},{"lat":-28.52695,"lng":-70.76009,"nombre":"Parque Fotovoltaico Hijuela","estado":"En Construcción","tech":"Solar fotovoltaica","region":"Atacama","mw":9,"segmento":"PMG","almac":"No","year":2024},{"lat":-33.62718,"lng":-71.57305,"nombre":"Planta Fotovoltaica Rivazzurra Solar","estado":"En Construcción","tech":"Solar fotovoltaica","region":"Valparaíso","mw":9,"segmento":"PMGD","almac":"Sí","year":2024},{"lat":-33.11995,"lng":-70.81147,"nombre":"PMGD Belenos Til Til (Ex PMGD Til Til)","estado":"En Operación","tech":"Solar fotovoltaica","region":"Metropolitana","mw":9,"segmento":"PMGD","almac":"No","year":2024},{"lat":-18.43523,"lng":-70.26952,"nombre":"Línea de Transmisión y Central BESS Halcón 14","estado":"Aprobado","tech":"BESS","region":"Arica y Parinacota","mw":30,"segmento":"Utility Scale","almac":"Sí","year":2024},{"lat":-18.48788,"lng":-70.23272,"nombre":"Línea de Transmisión y Central BESS Halcón 7","estado":"Aprobado","tech":"BESS","region":"Arica y Parinacota","mw":17,"segmento":"Utility Scale","almac":"Sí","year":2024},{"lat":-34.55553,"lng":-70.95885,"nombre":"Proyecto Sistema de Almacenamiento de Energía (SAE) Volcán H","estado":"Aprobado","tech":"BESS","region":"O’Higgins","mw":40,"segmento":"Utility Scale","almac":"Sí","year":2024},{"lat":-37.59983,"lng":-72.5555,"nombre":"Parque Fotovoltaico Omega","estado":"Aprobado","tech":"Solar fotovoltaica","region":"Biobío","mw":4.9,"segmento":"PMGD","almac":"Sí","year":2024},{"lat":-33.4797,"lng":-70.66087,"nombre":"Parque Fotovoltaico Volcán Chascón","estado":"En Calificación","tech":"Solar fotovoltaica","region":"Metropolitana","mw":91.67,"segmento":"Utility Scale","almac":"Sí","year":2024},{"lat":-27.53253,"lng":-70.06703,"nombre":"Parque Fotovoltaico Cristaria Solar","estado":"En Calificación","tech":"Solar fotovoltaica","region":"Atacama","mw":200,"segmento":"Utility Scale","almac":"Sí","year":2024},{"lat":-34.65984,"lng":-70.86238,"nombre":"Parque Fotovoltaico Pequén","estado":"Aprobado","tech":"Solar fotovoltaica","region":"O’Higgins","mw":9,"segmento":"PMGD","almac":"Sí","year":2024},{"lat":-34.42076,"lng":-70.85979,"nombre":"Parque Fotovoltaico Rengo Solar","estado":"En Operación","tech":"Solar fotovoltaica","region":"O’Higgins","mw":7,"segmento":"PMGD","almac":"No","year":2024},{"lat":-33.31111,"lng":-71.43026,"nombre":"Sistema de Almacenamiento de Energía Polaris","estado":"Aprobado","tech":"BESS","region":"Valparaíso","mw":381.2,"segmento":"Utility Scale","almac":"Sí","year":2024},{"lat":-33.59973,"lng":-71.53274,"nombre":"Proyecto Solar Fotovoltaico Guanay","estado":"Aprobado","tech":"Solar fotovoltaica","region":"Valparaíso","mw":120,"segmento":"Utility Scale","almac":"Sí","year":2024},{"lat":-35.92433,"lng":-72.29976,"nombre":"Parque Fotovoltaico Chirigues","estado":"Aprobado","tech":"Solar fotovoltaica","region":"Maule","mw":100,"segmento":"Utility Scale","almac":"Sí","year":2024},{"lat":-40.33031,"lng":-73.01359,"nombre":"PARQUE FOTOVOLTAICO LOS TAMBORES","estado":"Aprobado","tech":"Solar fotovoltaica","region":"Los Ríos","mw":9,"segmento":"PMGD","almac":"Sí","year":2024},{"lat":-27.9561,"lng":-70.00213,"nombre":"Parque Fotovoltaico Syrah Solar","estado":"Aprobado","tech":"Solar fotovoltaica","region":"Atacama","mw":4,"segmento":"PMGD","almac":"Sí","year":2024},{"lat":-24.30008,"lng":-68.79606,"nombre":"Parque Fotovoltaico Altos del Sol","estado":"Aprobado","tech":"Solar fotovoltaica","region":"Antofagasta","mw":763.6,"segmento":"Utility Scale","almac":"Sí","year":2024},{"lat":-20.28166,"lng":-69.6374,"nombre":"Parque Fotovoltaico Víctor Jara","estado":"En Operación","tech":"Solar fotovoltaica","region":"Tarapacá","mw":200,"segmento":"Utility Scale","almac":"Sí","year":2024},{"lat":-39.81556,"lng":-73.14731,"nombre":"Parque Eólico El Alemán","estado":"En Construcción","tech":"Eólica","region":"Los Ríos","mw":9,"segmento":"PMGD","almac":"No","year":2024},{"lat":-36.75032,"lng":-72.13774,"nombre":"PMGD Cuarto Menguante","estado":"En Construcción","tech":"Solar fotovoltaica","region":"Ñuble","mw":9,"segmento":"PMGD","almac":"No","year":2024},{"lat":-39.95042,"lng":-72.59397,"nombre":"PARQUE FOTOVOLTAICO LOS ALAMOS","estado":"Aprobado","tech":"Solar fotovoltaica","region":"Los Ríos","mw":9,"segmento":"PMGD","almac":"Sí","year":2024},{"lat":-35.73515,"lng":-71.40063,"nombre":"Proyecto AR Panimávida Solar","estado":"Aprobado","tech":"Solar fotovoltaica","region":"Maule","mw":112.58,"segmento":"Utility Scale","almac":"No","year":2024},{"lat":-34.40087,"lng":-71.62787,"nombre":"Sistema de Almacenamiento de Energía Medialuna","estado":"Aprobado","tech":"BESS","region":"O’Higgins","mw":66,"segmento":"Utility Scale","almac":"Sí","year":2024},{"lat":-33.5468,"lng":-70.89893,"nombre":"PSF Las Violetas","estado":"En Pruebas","tech":"Solar fotovoltaica","region":"Metropolitana","mw":4,"segmento":"PMGD","almac":"Sí","year":2024},{"lat":-33.70055,"lng":-70.88666,"nombre":"Nueva Central Solar Fotovoltaica Macao","estado":"En Operación","tech":"Solar fotovoltaica","region":"Metropolitana","mw":9,"segmento":"PMGD","almac":"No","year":2024},{"lat":-33.11854,"lng":-70.78408,"nombre":"Planta Solar Fotovoltaica Oro y Cielo","estado":"Aprobado","tech":"Solar fotovoltaica","region":"Metropolitana","mw":96.2,"segmento":"Utility Scale","almac":"No","year":2024},{"lat":-35.36003,"lng":-72.39293,"nombre":"Parque Fotovoltaico Cormorán","estado":"Aprobado","tech":"Solar fotovoltaica","region":"Maule","mw":9,"segmento":"PMGD","almac":"Sí","year":2024},{"lat":-39.84225,"lng":-72.78943,"nombre":"Parque Fotovoltaico Los Lagos","estado":"Aprobado","tech":"Solar fotovoltaica","region":"Los Ríos","mw":9,"segmento":"PMGD","almac":"Sí","year":2024},{"lat":-34.47368,"lng":-70.74775,"nombre":"Energética Solar Las Nieves","estado":"Aprobado","tech":"Solar fotovoltaica","region":"O’Higgins","mw":9,"segmento":"PMGD","almac":"Sí","year":2024},{"lat":-34.30971,"lng":-70.82249,"nombre":"Energética Solar Requínoa","estado":"Aprobado","tech":"Solar fotovoltaica","region":"O’Higgins","mw":9,"segmento":"PMGD","almac":"Sí","year":2024},{"lat":-32.78703,"lng":-71.45343,"nombre":"Energética Solar El Membrillo","estado":"Aprobado","tech":"Solar fotovoltaica","region":"Metropolitana","mw":150,"segmento":"Utility Scale","almac":"Sí","year":2024},{"lat":-35.1302,"lng":-71.36426,"nombre":"Sistema de Almacenamiento de Energía (SAE) Volcán Melimoyu","estado":"Aprobado","tech":"BESS","region":"Maule","mw":40,"segmento":"Utility Scale","almac":"Sí","year":2024},{"lat":-24.12235,"lng":-69.31228,"nombre":"Parque Fotovoltaico Zaldivar","estado":"Aprobado","tech":"Solar fotovoltaica","region":"Antofagasta","mw":250,"segmento":"Utility Scale","almac":"Sí","year":2024},{"lat":-34.33392,"lng":-71.56102,"nombre":"Parque Fotovoltaico Emú","estado":"Aprobado","tech":"Solar fotovoltaica","region":"O’Higgins","mw":9,"segmento":"PMGD","almac":"Sí","year":2024},{"lat":-20.39053,"lng":-69.71401,"nombre":"Parque Solar Fotovotaico Tarapacá (Ex Parque Solar Fotovolta","estado":"En Construcción","tech":"Solar fotovoltaica","region":"Tarapacá","mw":168,"segmento":"Utility Scale","almac":"Sí","year":2024},{"lat":-34.26344,"lng":-71.02882,"nombre":"Sistema de Almacenamiento de Energía (SAE) Volcán Mentolat","estado":"Aprobado","tech":"BESS","region":"O’Higgins","mw":40,"segmento":"Utility Scale","almac":"Sí","year":2024},{"lat":-34.558,"lng":-70.99327,"nombre":"Nueva Central Solar Fotovoltaica Las Guindillas","estado":"En Operación","tech":"Solar fotovoltaica","region":"O’Higgins","mw":9,"segmento":"PMGD","almac":"No","year":2024},{"lat":-30.07835,"lng":-71.24711,"nombre":"Parque Fotovoltaico Cerrillos","estado":"En Pruebas","tech":"Solar fotovoltaica","region":"Coquimbo","mw":9,"segmento":"PMGD","almac":"No","year":2024},{"lat":-33.64111,"lng":-70.76982,"nombre":"Proyecto Planta Solar Santa Isidora","estado":"En Construcción","tech":"Solar fotovoltaica","region":"Metropolitana","mw":9,"segmento":"PMGD","almac":"No","year":2024},{"lat":-35.46279,"lng":-72.35757,"nombre":"Parque Eólico El Guanaco","estado":"Aprobado","tech":"Eólica","region":"Maule","mw":316.8,"segmento":"Utility Scale","almac":"No","year":2024},{"lat":-37.84658,"lng":-72.59115,"nombre":"DIA Parque Eólico Los Alpes","estado":"Aprobado","tech":"Eólica","region":"La Araucanía","mw":105.6,"segmento":"Utility Scale","almac":"No","year":2024},{"lat":-33.35738,"lng":-71.48316,"nombre":"Planta Solar Fotovoltaica con Almacenamiento de Energía Prad","estado":"Aprobado","tech":"Solar fotovoltaica","region":"Valparaíso","mw":100,"segmento":"Utility Scale","almac":"Sí","year":2024},{"lat":-22.54322,"lng":-68.75479,"nombre":"Parque Fotovoltaico Parina Solar","estado":"Aprobado","tech":"Solar fotovoltaica","region":"Antofagasta","mw":199.68,"segmento":"Utility Scale","almac":"Sí","year":2024},{"lat":-33.7142,"lng":-70.9265,"nombre":"Parque Fotovoltaico Santa Marta","estado":"En Construcción","tech":"Solar fotovoltaica","region":"Metropolitana","mw":9,"segmento":"PMGD","almac":"No","year":2024},{"lat":-34.10162,"lng":-70.71565,"nombre":"Parque Fotovoltaico Graneros","estado":"Aprobado","tech":"Solar fotovoltaica","region":"O’Higgins","mw":7,"segmento":"PMGD","almac":"Sí","year":2024},{"lat":-35.13101,"lng":-71.26412,"nombre":"Parque Fotovoltaico Yeco","estado":"Aprobado","tech":"Solar fotovoltaica","region":"Maule","mw":9,"segmento":"PMGD","almac":"Sí","year":2024},{"lat":-35.95151,"lng":-72.36407,"nombre":"PSF Leo Bio","estado":"Aprobado","tech":"Solar fotovoltaica","region":"Maule","mw":7.68,"segmento":"PMGD","almac":"No","year":2024},{"lat":-40.26613,"lng":-73.11525,"nombre":"Parque Solar Burgos","estado":"Aprobado","tech":"Solar fotovoltaica","region":"Los Ríos","mw":9,"segmento":"PMGD","almac":"Sí","year":2024},{"lat":-40.33229,"lng":-73.00317,"nombre":"Parque Solar Rio Bueno","estado":"Aprobado","tech":"Solar fotovoltaica","region":"Los Ríos","mw":9,"segmento":"PMGD","almac":"Sí","year":2024},{"lat":-32.78753,"lng":-71.44239,"nombre":"Planta Fotovoltaica Corniglia","estado":"Aprobado","tech":"Solar fotovoltaica","region":"Valparaíso","mw":9,"segmento":"PMGD","almac":"Sí","year":2024},{"lat":-34.25095,"lng":-70.84945,"nombre":"PFV José Solar","estado":"Aprobado","tech":"Solar fotovoltaica","region":"O’Higgins","mw":9,"segmento":"PMGD","almac":"Sí","year":2024},{"lat":-33.75057,"lng":-70.82818,"nombre":"Planta Solar La Puntilla","estado":"En Construcción","tech":"Solar fotovoltaica","region":"Metropolitana","mw":9,"segmento":"PMGD","almac":"No","year":2024},{"lat":-36.40123,"lng":-71.94447,"nombre":"PMGD FV La Cosecha","estado":"En Operación","tech":"Solar fotovoltaica","region":"Ñuble","mw":9,"segmento":"Utility Scale","almac":"No","year":2024},{"lat":-32.79379,"lng":-70.87431,"nombre":"Sistema de almacenamiento de Energía por Baterías - San Rafa","estado":"Aprobado","tech":"BESS","region":"Valparaíso","mw":90,"segmento":"Utility Scale","almac":"Sí","year":2024},{"lat":-35.38157,"lng":-71.57159,"nombre":"FV Conde","estado":"Aprobado","tech":"Solar fotovoltaica","region":"Maule","mw":9,"segmento":"PMGD","almac":"No","year":2024},{"lat":-20.40589,"lng":-69.83687,"nombre":"Proyecto Fotovoltaico con Almacenamiento Tamarindo","estado":"Aprobado","tech":"Solar fotovoltaica","region":"Tarapacá","mw":9,"segmento":"PMGD","almac":"Sí","year":2024},{"lat":-40.93208,"lng":-73.15688,"nombre":"Parque Fotovoltaico Purranque","estado":"Aprobado","tech":"Solar fotovoltaica","region":"Los Lagos","mw":4.5,"segmento":"PMGD","almac":"Sí","year":2024},{"lat":-33.75235,"lng":-70.88638,"nombre":"Planta Solar Balmaceda","estado":"Aprobado","tech":"Solar fotovoltaica","region":"Metropolitana","mw":9,"segmento":"PMGD","almac":"Sí","year":2024},{"lat":-22.88893,"lng":-69.29298,"nombre":"PFV Gabriela + BESS","estado":"En Pruebas","tech":"Solar fotovoltaica","region":"Antofagasta","mw":220,"segmento":"Utility Scale","almac":"Sí","year":2024},{"lat":-41.2225,"lng":-73.2965,"nombre":"Parque Eólico Cuatro Vientos","estado":"En Calificación","tech":"Eólica","region":"Los Lagos","mw":360,"segmento":"Utility Scale","almac":"No","year":2024},{"lat":-33.32127,"lng":-71.42703,"nombre":"Parque Solar Fotovoltaico Acuyo","estado":"Aprobado","tech":"Solar fotovoltaica","region":"Valparaíso","mw":82,"segmento":"Utility Scale","almac":"Sí","year":2024},{"lat":-32.79938,"lng":-71.45348,"nombre":"Planta Fotovoltaica Manarola","estado":"Aprobado","tech":"Solar fotovoltaica","region":"Valparaíso","mw":9,"segmento":"PMGD","almac":"Sí","year":2024},{"lat":-32.44835,"lng":-71.33806,"nombre":"Parque Fotovoltaico Leones Solar","estado":"Aprobado","tech":"Solar fotovoltaica","region":"Valparaíso","mw":100.8,"segmento":"Utility Scale","almac":"Sí","year":2024},{"lat":-37.02945,"lng":-72.13839,"nombre":"Parque Eólico Dañicalqui","estado":"Aprobado","tech":"Eólica","region":"Ñuble","mw":95.2,"segmento":"Utility Scale","almac":"No","year":2024},{"lat":-36.6276,"lng":-72.18928,"nombre":"Parque Fotovoltaico Sol del Sur SG","estado":"Aprobado","tech":"Solar fotovoltaica","region":"Ñuble","mw":9,"segmento":"Utility Scale","almac":"Sí","year":2024},{"lat":-34.622,"lng":-70.98018,"nombre":"Parque Solar Chucao","estado":"Aprobado","tech":"Solar fotovoltaica","region":"O’Higgins","mw":9,"segmento":"PMGD","almac":"Sí","year":2024},{"lat":-33.29967,"lng":-70.64986,"nombre":"Planta Fotovoltaica Chieti Solar","estado":"Aprobado","tech":"Solar fotovoltaica","region":"Metropolitana","mw":9,"segmento":"PMGD","almac":"Sí","year":2024},{"lat":-33.17339,"lng":-71.54757,"nombre":"Parque Solar Comunidad","estado":"Aprobado","tech":"Solar fotovoltaica","region":"Valparaíso","mw":9,"segmento":"PMGD","almac":"Sí","year":2024},{"lat":-37.43991,"lng":-71.93602,"nombre":"PSF Leona del Agua II","estado":"Aprobado","tech":"Solar fotovoltaica","region":"Biobío","mw":9,"segmento":"PMGD","almac":"Sí","year":2024},{"lat":-24.87775,"lng":-69.80486,"nombre":"Parque Eólico Antofagasta","estado":"En Pruebas","tech":"Eólica","region":"Antofagasta","mw":364,"segmento":"Utility Scale","almac":"No","year":2023},{"lat":-27.57137,"lng":-70.22611,"nombre":"Línea de Transmisión y Central BESS Halcón 3","estado":"Aprobado","tech":"BESS","region":"Atacama","mw":65,"segmento":"Utility Scale","almac":"Sí","year":2023},{"lat":-34.13614,"lng":-70.83089,"nombre":"Planta Fotovoltaica Faro Santa Elena","estado":"En Pruebas","tech":"Solar fotovoltaica","region":"O’Higgins","mw":9,"segmento":"Utility Scale","almac":"No","year":2023},{"lat":-23,"lng":-70,"nombre":"Parque Fotovoltaico Farol","estado":"En Operación","tech":"Solar fotovoltaica","region":"Antofagasta","mw":9,"segmento":"PMGD","almac":"No","year":2023},{"lat":-26.40183,"lng":-70.06158,"nombre":"Línea de Transmisión y Central BESS Halcón de Almagro","estado":"Aprobado","tech":"BESS","region":"Atacama","mw":64,"segmento":"Utility Scale","almac":"Sí","year":2023},{"lat":-26.40183,"lng":-70.06158,"nombre":"Línea de Transmisión y Central BESS Halcón 10","estado":"Aprobado","tech":"BESS","region":"Atacama","mw":55,"segmento":"Utility Scale","almac":"Sí","year":2023},{"lat":-35.08016,"lng":-71.28666,"nombre":"Parque Fotovoltaico Cigüeña","estado":"Aprobado","tech":"Solar fotovoltaica","region":"Maule","mw":9,"segmento":"PMGD","almac":"Sí","year":2023},{"lat":-32.84441,"lng":-70.98906,"nombre":"Línea de Transmisión y Central BESS Halcón 6","estado":"Aprobado","tech":"BESS","region":"Valparaíso","mw":26,"segmento":"Utility Scale","almac":"Sí","year":2023},{"lat":-33.02693,"lng":-71.27124,"nombre":"Parque Fotovoltaico Santa Ana del Pangal","estado":"Aprobado","tech":"Solar fotovoltaica","region":"Valparaíso","mw":9,"segmento":"PMGD","almac":"Sí","year":2023},{"lat":-32.33099,"lng":-71.26842,"nombre":"Parque Fotovoltaico Andino Longotoma","estado":"Aprobado","tech":"Solar fotovoltaica","region":"Valparaíso","mw":222,"segmento":"Utility Scale","almac":"Sí","year":2023},{"lat":-27.27831,"lng":-70.39656,"nombre":"Línea de Transmisión y Central BESS Halcón 4","estado":"Aprobado","tech":"BESS","region":"Atacama","mw":100,"segmento":"Utility Scale","almac":"Sí","year":2023},{"lat":-33.56379,"lng":-71.25125,"nombre":"Planta Solar Fotovoltaica Canastero","estado":"Aprobado","tech":"Solar fotovoltaica","region":"Metropolitana","mw":90,"segmento":"Utility Scale","almac":"Sí","year":2023},{"lat":-29.94298,"lng":-70.53754,"nombre":"Línea de Transmisión y Central BESS Halcón 13","estado":"Aprobado","tech":"BESS","region":"Coquimbo","mw":52,"segmento":"Utility Scale","almac":"Sí","year":2023},{"lat":-20.32072,"lng":-69.75331,"nombre":"Línea de Transmisión y Central BESS Halcón 20","estado":"Aprobado","tech":"BESS","region":"Tarapacá","mw":300,"segmento":"Utility Scale","almac":"Sí","year":2023},{"lat":-30.14992,"lng":-71.1992,"nombre":"Línea de Transmisión y Central BESS Halcón 9","estado":"Aprobado","tech":"BESS","region":"Coquimbo","mw":69,"segmento":"Utility Scale","almac":"Sí","year":2023},{"lat":-20.23171,"lng":-69.62594,"nombre":"Línea de Transmisión y Central BESS Halcón 2","estado":"Aprobado","tech":"BESS","region":"Tarapacá","mw":57,"segmento":"Utility Scale","almac":"Sí","year":2023},{"lat":-33,"lng":-71,"nombre":"Parque Fotovoltaico Leonera Solar","estado":"En Calificación","tech":"Solar fotovoltaica","region":"Valparaíso","mw":7.4,"segmento":"PMGD","almac":"Sí","year":2023},{"lat":-29.08072,"lng":-70.91596,"nombre":"Planta Fotovoltaica Cachiyuyo","estado":"En Construcción","tech":"Solar fotovoltaica","region":"Atacama","mw":50,"segmento":"Utility Scale","almac":"No","year":2023},{"lat":-23.06659,"lng":-70.36832,"nombre":"Proyecto Alba","estado":"Aprobado","tech":"Batería de Carnot","region":"Antofagasta","mw":560,"segmento":"Utility Scale","almac":"Sí","year":2023},{"lat":-32.7638,"lng":-71.37667,"nombre":"Parque Fotovoltaico Los Maquis Solar","estado":"Aprobado","tech":"Solar fotovoltaica","region":"Valparaíso","mw":7.5,"segmento":"PMGD","almac":"No","year":2023},{"lat":-33.12454,"lng":-70.86809,"nombre":"Parque Fotovoltaico El Bautizo","estado":"Aprobado","tech":"Solar fotovoltaica","region":"Metropolitana","mw":9,"segmento":"Utility Scale","almac":"No","year":2023},{"lat":-40.64628,"lng":-73.09287,"nombre":"Parque Fotovoltaico Las Mentas","estado":"Aprobado","tech":"Solar fotovoltaica","region":"Los Lagos","mw":9,"segmento":"PMGD","almac":"Sí","year":2023},{"lat":-34.95499,"lng":-71.71618,"nombre":"Sol de Caone","estado":"Aprobado","tech":"Solar fotovoltaica","region":"Maule","mw":420,"segmento":"Utility Scale","almac":"No","year":2023},{"lat":-33.40633,"lng":-71.58944,"nombre":"Sol de Valle Hermoso","estado":"En Construcción","tech":"Solar fotovoltaica","region":"Valparaíso","mw":9,"segmento":"PMGD","almac":"Sí","year":2023},{"lat":-18.92444,"lng":-70.14979,"nombre":"Proyecto Parque Fotovoltaico Alwa II","estado":"Aprobado","tech":"Solar fotovoltaica","region":"Arica y Parinacota","mw":198.04,"segmento":"Utility Scale","almac":"Sí","year":2023},{"lat":-36.74135,"lng":-72.14313,"nombre":"La Mocha Solar","estado":"Aprobado","tech":"Solar fotovoltaica","region":"Ñuble","mw":160,"segmento":"Utility Scale","almac":"Sí","year":2023},{"lat":-33.28881,"lng":-70.79342,"nombre":"Proyecto Solar Fotovoltaico Lampa","estado":"Aprobado","tech":"Solar fotovoltaica","region":"Metropolitana","mw":108,"segmento":"Utility Scale","almac":"Sí","year":2023},{"lat":-33.09371,"lng":-70.85166,"nombre":"Parque Fotovoltaico Lucía Solar","estado":"Aprobado","tech":"Solar fotovoltaica","region":"Metropolitana","mw":42,"segmento":"Utility Scale","almac":"Sí","year":2023},{"lat":-32.87735,"lng":-70.69536,"nombre":"Parque Fotovoltaico Auco Sunlight","estado":"Aprobado","tech":"Solar fotovoltaica","region":"Valparaíso","mw":9,"segmento":"PMGD","almac":"Sí","year":2023},{"lat":-40.5253,"lng":-73.15278,"nombre":"Parque Solar Pampa Alegre","estado":"Aprobado","tech":"Solar fotovoltaica","region":"Los Lagos","mw":9,"segmento":"PMGD","almac":"Sí","year":2023},{"lat":-34.17486,"lng":-70.80945,"nombre":"Planta Fotovoltaica Punta de Cortés","estado":"Aprobado","tech":"Solar fotovoltaica","region":"O’Higgins","mw":9,"segmento":"PMGD","almac":"Sí","year":2023},{"lat":-28.50816,"lng":-70.92177,"nombre":"Parque Fotovoltaico Don Carlos","estado":"Aprobado","tech":"Solar fotovoltaica","region":"Atacama","mw":196,"segmento":"Utility Scale","almac":"Sí","year":2023},{"lat":-41.6763,"lng":-73.28045,"nombre":"Parque Eólico Los Portones","estado":"En Calificación","tech":"Eólica","region":"Los Lagos","mw":167.4,"segmento":"Utility Scale","almac":"Sí","year":2023},{"lat":-34.14661,"lng":-70.68195,"nombre":"PMGD CE Machalí","estado":"En Construcción","tech":"Solar fotovoltaica","region":"O’Higgins","mw":9,"segmento":"PMGD","almac":"No","year":2023},{"lat":-28.20221,"lng":-70.70571,"nombre":"Parque solar fotovoltaico Ceibo","estado":"En Calificación","tech":"Solar fotovoltaica","region":"Atacama","mw":250,"segmento":"Utility Scale","almac":"Sí","year":2023},{"lat":-30.44498,"lng":-71.0824,"nombre":"Parque Fotovoltaico La Chupalla","estado":"Aprobado","tech":"Solar fotovoltaica","region":"Coquimbo","mw":129,"segmento":"Utility Scale","almac":"Sí","year":2023},{"lat":-32.85955,"lng":-70.94655,"nombre":"Parque Fotovoltaico El Roble","estado":"Aprobado","tech":"Solar fotovoltaica","region":"Valparaíso","mw":6,"segmento":"Utility Scale","almac":"Sí","year":2023},{"lat":-35.50483,"lng":-71.54477,"nombre":"Planta Fotovoltaica Cahuil Solar II","estado":"Aprobado","tech":"Solar fotovoltaica","region":"Maule","mw":6,"segmento":"PMGD","almac":"No","year":2023},{"lat":-24.80197,"lng":-69.84502,"nombre":"BESS Parque Eólico Pampa Fidelia Etapa 1","estado":"Aprobado","tech":"BESS","region":"Antofagasta","mw":0,"segmento":"Utility Scale","almac":"Sí","year":2023},{"lat":-24.80197,"lng":-69.84502,"nombre":"BESS Parque Eólico Pampa Fidelia Etapa 2","estado":"Aprobado","tech":"BESS","region":"Antofagasta","mw":0,"segmento":"Utility Scale","almac":"Sí","year":2023},{"lat":-32.84372,"lng":-71.44484,"nombre":"Parque Fotovoltaico Ritoque Solar","estado":"Aprobado","tech":"Solar fotovoltaica","region":"Valparaíso","mw":80,"segmento":"Utility Scale","almac":"Sí","year":2023},{"lat":-32.85956,"lng":-70.94655,"nombre":"Porvenir Solar","estado":"Aprobado","tech":"Solar fotovoltaica","region":"Valparaíso","mw":40,"segmento":"Utility Scale","almac":"Sí","year":2023},{"lat":-30.58087,"lng":-71.68967,"nombre":"PARQUE EÓLICO CARICA","estado":"En Calificación","tech":"Eólica","region":"Coquimbo","mw":85,"segmento":"Utility Scale","almac":"Sí","year":2023},{"lat":-27.85758,"lng":-70.19607,"nombre":"Ampliación Central Desierto de Atacama","estado":"En Operación","tech":"Solar fotovoltaica","region":"Atacama","mw":138.95,"segmento":"Utility Scale","almac":"Sí","year":2023},{"lat":-27.86447,"lng":-70.18435,"nombre":"Central Desierto De Atacama","estado":"En Operación","tech":"Solar fotovoltaica","region":"Atacama","mw":96.38,"segmento":"Utility Scale","almac":"Sí","year":2023},{"lat":-34.23785,"lng":-70.81685,"nombre":"Planta Solar El Membrillar","estado":"En Construcción","tech":"Solar fotovoltaica","region":"O’Higgins","mw":9,"segmento":"PMGD","almac":"No","year":2023},{"lat":-31.62983,"lng":-71.18165,"nombre":"Siete Colores","estado":"En Operación","tech":"Solar fotovoltaica","region":"Coquimbo","mw":9,"segmento":"PMGD","almac":"No","year":2023},{"lat":-36.76385,"lng":-72.06729,"nombre":"Santa Graciela Solar","estado":"Aprobado","tech":"Solar fotovoltaica","region":"Ñuble","mw":80,"segmento":"Utility Scale","almac":"Sí","year":2023},{"lat":-41.8927,"lng":-72.72581,"nombre":"Parque Eólico Loma Verde","estado":"En Calificación","tech":"Eólica","region":"Los Lagos","mw":136.4,"segmento":"Utility Scale","almac":"Sí","year":2023},{"lat":-31.6136,"lng":-71.37828,"nombre":"Parque Fotovoltaico Llanos de Rungue","estado":"Aprobado","tech":"Solar fotovoltaica","region":"Coquimbo","mw":280,"segmento":"Utility Scale","almac":"Sí","year":2023},{"lat":-32.91017,"lng":-71.27397,"nombre":"Energía Esmeralda","estado":"Aprobado","tech":"Solar fotovoltaica","region":"Valparaíso","mw":9,"segmento":"PMGD","almac":"No","year":2023},{"lat":-39.71873,"lng":-73.08584,"nombre":"Parque Fotovoltaico Los Arrayanes","estado":"Aprobado","tech":"Solar fotovoltaica","region":"Los Ríos","mw":9,"segmento":"PMGD","almac":"Sí","year":2023},{"lat":-34.62668,"lng":-71.15945,"nombre":"Parque Fotovoltaico Yaquil","estado":"Aprobado","tech":"Solar fotovoltaica","region":"O’Higgins","mw":9,"segmento":"PMGD","almac":"Sí","year":2023},{"lat":-41.88134,"lng":-73.68148,"nombre":"PMGD Coloane","estado":"Aprobado","tech":"Eólica","region":"Los Lagos","mw":9,"segmento":"PMGD","almac":"Sí","year":2023},{"lat":-41.7634,"lng":-73.48752,"nombre":"PMGD Dalca","estado":"Aprobado","tech":"Eólica","region":"Los Lagos","mw":9,"segmento":"PMGD","almac":"Sí","year":2023},{"lat":-36.07617,"lng":-71.94907,"nombre":"Parque Solar Parral","estado":"Aprobado","tech":"Solar fotovoltaica","region":"Maule","mw":165,"segmento":"Utility Scale","almac":"Sí","year":2023},{"lat":-35.81715,"lng":-71.64009,"nombre":"Sol de León","estado":"Aprobado","tech":"Solar fotovoltaica","region":"Maule","mw":50,"segmento":"Utility Scale","almac":"Sí","year":2023},{"lat":-35.61802,"lng":-71.79527,"nombre":"Parque Solar San Javier","estado":"Aprobado","tech":"Solar fotovoltaica","region":"Maule","mw":80,"segmento":"Utility Scale","almac":"Sí","year":2023},{"lat":-33.76151,"lng":-70.78679,"nombre":"Parque Fotovoltaico El Capitán","estado":"Aprobado","tech":"Solar fotovoltaica","region":"Metropolitana","mw":9,"segmento":"PMG","almac":"Sí","year":2023},{"lat":-32.48128,"lng":-71.23602,"nombre":"Planta Solar La Ligua 9 MW","estado":"Aprobado","tech":"Solar fotovoltaica","region":"Valparaíso","mw":9,"segmento":"Utility Scale","almac":"No","year":2023},{"lat":-33.11894,"lng":-70.82804,"nombre":"Proyecto Solar Fotovoltaico Don Humberto","estado":"En Operación","tech":"Solar fotovoltaica","region":"Metropolitana","mw":80.8,"segmento":"Utility Scale","almac":"Sí","year":2023},{"lat":-34.39035,"lng":-70.82796,"nombre":"Planta Fotovoltaica Lo Miguel","estado":"En Operación","tech":"Solar fotovoltaica","region":"O’Higgins","mw":9,"segmento":"PMGD","almac":"No","year":2023},{"lat":-40.31661,"lng":-73.11898,"nombre":"Parque Solar Mautz","estado":"Aprobado","tech":"Solar fotovoltaica","region":"Los Ríos","mw":9,"segmento":"PMGD","almac":"Sí","year":2023},{"lat":-32.78984,"lng":-71.47984,"nombre":"Solar Ray 1","estado":"Aprobado","tech":"Solar fotovoltaica","region":"Valparaíso","mw":44.1,"segmento":"Utility Scale","almac":"Sí","year":2023},{"lat":-36.75297,"lng":-72.38602,"nombre":"Parque Fotovoltaico Bulnes","estado":"Aprobado","tech":"Solar fotovoltaica","region":"Ñuble","mw":9,"segmento":"PMGD","almac":"No","year":2023},{"lat":-35.05817,"lng":-71.70005,"nombre":"Parque Solar Fotovoltaico Chimango","estado":"Aprobado","tech":"Solar fotovoltaica","region":"Maule","mw":165,"segmento":"Utility Scale","almac":"Sí","year":2023},{"lat":-36.03064,"lng":-71.92506,"nombre":"Planta Fotovoltaica Tamango","estado":"En Operación","tech":"Solar fotovoltaica","region":"Maule","mw":45.84,"segmento":"Utility Scale","almac":"No","year":2023},{"lat":-34.12132,"lng":-71.64688,"nombre":"Parque Eólico Los Cerrillos","estado":"En Operación","tech":"Eólica","region":"O’Higgins","mw":44.68,"segmento":"Utility Scale","almac":"No","year":2023},{"lat":-33.97193,"lng":-70.67529,"nombre":"San Francisco Solar","estado":"Aprobado","tech":"Solar fotovoltaica","region":"O’Higgins","mw":9,"segmento":"PMGD","almac":"Sí","year":2023},{"lat":-37.08072,"lng":-72.37609,"nombre":"Proyecto Fotovoltaico Don Davo","estado":"Aprobado","tech":"Solar fotovoltaica","region":"Biobío","mw":9,"segmento":"PMGD","almac":"Sí","year":2023},{"lat":-24.8621,"lng":-69.92172,"nombre":"Parque Eólico Kallpa (Ex Lomas de Taltal)","estado":"En Operación","tech":"Eólica","region":"Antofagasta","mw":335.6,"segmento":"Utility Scale","almac":"No","year":2023},{"lat":-20.80245,"lng":-69.45217,"nombre":"Parque Fotovoltaico Aurora Solar","estado":"En Construcción","tech":"Solar fotovoltaica","region":"Tarapacá","mw":187,"segmento":"Utility Scale","almac":"No","year":2023},{"lat":-33.60908,"lng":-71.49065,"nombre":"Parque Fotovoltaico Leyda","estado":"En Operación","tech":"Solar fotovoltaica","region":"Valparaíso","mw":80,"segmento":"Utility Scale","almac":"No","year":2023},{"lat":-34.45003,"lng":-70.31784,"nombre":"MCHP Cipresillos","estado":"En Operación","tech":"Mini Hidráulica Pasada","region":"O’Higgins","mw":10.36,"segmento":"Utility Scale","almac":"No","year":2023},{"lat":-32.96011,"lng":-70.84113,"nombre":"PMGD Montenegro I","estado":"Aprobado","tech":"Solar fotovoltaica","region":"Metropolitana","mw":5.73,"segmento":"PMGD","almac":"No","year":2023},{"lat":-36.6089,"lng":-72.05645,"nombre":"Parque Fotovoltaico El Cachudito","estado":"Aprobado","tech":"Solar fotovoltaica","region":"Ñuble","mw":9,"segmento":"PMGD","almac":"Sí","year":2023},{"lat":-30.21533,"lng":-71.2535,"nombre":"Parque Fotovoltaico Chirihue","estado":"Aprobado","tech":"Solar fotovoltaica","region":"Coquimbo","mw":9,"segmento":"PMGD","almac":"Sí","year":2023},{"lat":-35.16771,"lng":-71.17592,"nombre":"Parque Fotovoltaico Gavilán","estado":"Aprobado","tech":"Solar fotovoltaica","region":"Maule","mw":9,"segmento":"PMGD","almac":"Sí","year":2023},{"lat":-34.84037,"lng":-71.18744,"nombre":"Arboleda Solar","estado":"Aprobado","tech":"Solar fotovoltaica","region":"Maule","mw":80,"segmento":"Utility Scale","almac":"No","year":2023},{"lat":-37.69202,"lng":-72.62303,"nombre":"Parque Eólico Vergara","estado":"Aprobado","tech":"Eólica","region":"La Araucanía","mw":43.2,"segmento":"Utility Scale","almac":"No","year":2023},{"lat":-28.5459,"lng":-70.78611,"nombre":"Parque Fotovoltaico Zorzalito","estado":"Aprobado","tech":"Solar fotovoltaica","region":"Atacama","mw":9,"segmento":"PMGD","almac":"Sí","year":2023},{"lat":-30.00347,"lng":-71.23012,"nombre":"Ampliación del Parque Fotovoltaico Faro de El Triunfo","estado":"Aprobado","tech":"Solar fotovoltaica","region":"Coquimbo","mw":3.8,"segmento":"PMGD","almac":"No","year":2023},{"lat":-36.61673,"lng":-72.03675,"nombre":"FV Aldea","estado":"Aprobado","tech":"Solar fotovoltaica","region":"Ñuble","mw":7,"segmento":"PMGD","almac":"Sí","year":2023},{"lat":-42.15485,"lng":-73.71854,"nombre":"CH1 Butalcura","estado":"En Construcción","tech":"Eólica","region":"Los Lagos","mw":9,"segmento":"PMGD","almac":"No","year":2023},{"lat":-42.13155,"lng":-73.73485,"nombre":"PMGD CH2 Butalcura","estado":"En Construcción","tech":"Eólica","region":"Los Lagos","mw":9,"segmento":"PMGD","almac":"No","year":2023},{"lat":-37.59611,"lng":-72.20978,"nombre":"Albor Solar","estado":"En Operación","tech":"Solar fotovoltaica","region":"Biobío","mw":5.2,"segmento":"PMGD","almac":"No","year":2023},{"lat":-34.14655,"lng":-71.61281,"nombre":"Parque Fotovoltaico Pulin","estado":"Aprobado","tech":"Solar fotovoltaica","region":"O’Higgins","mw":60,"segmento":"Utility Scale","almac":"No","year":2023},{"lat":-36.61298,"lng":-72.028,"nombre":"FV Ñuble","estado":"Aprobado","tech":"Solar fotovoltaica","region":"Ñuble","mw":9,"segmento":"PMGD","almac":"Sí","year":2023},{"lat":-21.8615,"lng":-68.15135,"nombre":"Cerro Pabellón Unidad 3","estado":"En Operación","tech":"Geotérmica","region":"Antofagasta","mw":32.27,"segmento":"Utility Scale","almac":"No","year":2022},{"lat":-24.05698,"lng":-69.56267,"nombre":"Parque FV Domeyko","estado":"En Operación","tech":"Solar fotovoltaica","region":"Antofagasta","mw":201.61,"segmento":"Utility Scale","almac":"No","year":2022},{"lat":-33.33485,"lng":-70.68842,"nombre":"Planta Fotovoltaica Hugo Lorenzo","estado":"Aprobado","tech":"Solar fotovoltaica","region":"Metropolitana","mw":33,"segmento":"Utility Scale","almac":"No","year":2022},{"lat":-34.81423,"lng":-71.12794,"nombre":"Planta Fotovoltaica Gran Teno","estado":"En Operación","tech":"Solar fotovoltaica","region":"Maule","mw":199.56,"segmento":"Utility Scale","almac":"No","year":2022},{"lat":-33.02644,"lng":-70.69813,"nombre":"Ampliación Tauretes","estado":"Aprobado","tech":"Solar fotovoltaica","region":"Metropolitana","mw":0.37,"segmento":"Utility Scale","almac":"No","year":2022},{"lat":-22.49446,"lng":-69.1117,"nombre":"Parque Fotovoltaico Terrazas","estado":"Aprobado","tech":"Solar fotovoltaica","region":"Antofagasta","mw":151.23,"segmento":"Utility Scale","almac":"Sí","year":2022},{"lat":-35.12202,"lng":-71.19457,"nombre":"Parque Fotovoltaico Halcón Peregrino","estado":"Aprobado","tech":"Solar fotovoltaica","region":"Maule","mw":5.4,"segmento":"PMGD","almac":"Sí","year":2022},{"lat":-28.53872,"lng":-70.92918,"nombre":"Libertad II","estado":"En Construcción","tech":"Solar fotovoltaica","region":"Atacama","mw":122,"segmento":"Utility Scale","almac":"No","year":2022},{"lat":-28.53872,"lng":-70.92918,"nombre":"Libertad III","estado":"En Construcción","tech":"Solar fotovoltaica","region":"Atacama","mw":122,"segmento":"Utility Scale","almac":"No","year":2022},{"lat":-37.42483,"lng":-72.57376,"nombre":"Parque Eólico San Matías - Etapa 1","estado":"En Operación","tech":"Eólica","region":"Biobío","mw":75.8,"segmento":"Utility Scale","almac":"No","year":2022},{"lat":-32.35512,"lng":-71.31495,"nombre":"Quinquimo Solar","estado":"Aprobado","tech":"Solar fotovoltaica","region":"Valparaíso","mw":65,"segmento":"Utility Scale","almac":"Sí","year":2022},{"lat":-33.7188,"lng":-70.69697,"nombre":"PFV Alto Jahuel Solar","estado":"Aprobado","tech":"Solar fotovoltaica","region":"Metropolitana","mw":5.6,"segmento":"PMGD","almac":"No","year":2022},{"lat":-23.41766,"lng":-70.18273,"nombre":"Parque Fotovoltaico Capricornio","estado":"En Operación","tech":"Solar fotovoltaica","region":"Antofagasta","mw":88.62,"segmento":"Utility Scale","almac":"No","year":2022},{"lat":-37.12209,"lng":-71.58324,"nombre":"El Pinar","estado":"En Operación","tech":"Mini Hidráulica Pasada","region":"Ñuble","mw":11.38,"segmento":"Utility Scale","almac":"No","year":2022},{"lat":-42.15922,"lng":-73.68525,"nombre":"PMGD Eólico Oxypora","estado":"Aprobado","tech":"Eólica","region":"Los Lagos","mw":9,"segmento":"PMGD","almac":"No","year":2022},{"lat":-20.31812,"lng":-70.07855,"nombre":"Parque Fotovoltaico Platero","estado":"Aprobado","tech":"Solar fotovoltaica","region":"Tarapacá","mw":9,"segmento":"PMGD","almac":"Sí","year":2022},{"lat":-30.47118,"lng":-71.1654,"nombre":"Planta Solar Fotovoltaica Doña Antonia","estado":"En Operación","tech":"Solar fotovoltaica","region":"Coquimbo","mw":79.36,"segmento":"Utility Scale","almac":"No","year":2022},{"lat":-34.10273,"lng":-70.72071,"nombre":"Alameda","estado":"En Operación","tech":"Solar fotovoltaica","region":"O’Higgins","mw":9,"segmento":"PMGD","almac":"No","year":2022},{"lat":-32.92409,"lng":-71.37751,"nombre":"Central Tabolango","estado":"En Operación","tech":"Solar fotovoltaica","region":"Valparaíso","mw":9,"segmento":"PMGD","almac":"No","year":2022},{"lat":-20.27387,"lng":-69.61698,"nombre":"El Carmelo (Ex Carmesí)","estado":"En Construcción","tech":"Solar fotovoltaica","region":"Tarapacá","mw":9,"segmento":"PMGD","almac":"No","year":2022},{"lat":-32.74755,"lng":-70.56139,"nombre":"El Triunfo","estado":"En Operación","tech":"Solar fotovoltaica","region":"Valparaíso","mw":9,"segmento":"PMGD","almac":"No","year":2022},{"lat":-35.83286,"lng":-71.69859,"nombre":"Genova","estado":"En Operación","tech":"Solar fotovoltaica","region":"Maule","mw":9,"segmento":"PMGD","almac":"No","year":2022},{"lat":-35.98789,"lng":-72.29481,"nombre":"La Vendimia","estado":"En Operación","tech":"Solar fotovoltaica","region":"Maule","mw":9,"segmento":"PMGD","almac":"No","year":2022},{"lat":-23.85335,"lng":-70.30355,"nombre":"Lince Solar","estado":"En Operación","tech":"Solar fotovoltaica","region":"Antofagasta","mw":9,"segmento":"PMGD","almac":"No","year":2022},{"lat":-33.85621,"lng":-70.59683,"nombre":"Margarita Solar","estado":"En Construcción","tech":"Solar fotovoltaica","region":"Metropolitana","mw":9,"segmento":"PMGD","almac":"No","year":2022},{"lat":-20,"lng":-70,"nombre":"Parque Fotovoltaico Andrómeda","estado":"En Operación","tech":"Solar fotovoltaica","region":"Tarapacá","mw":9,"segmento":"PMGD","almac":"No","year":2022},{"lat":-21.4629,"lng":-68.82503,"nombre":"Parque Fotovoltaico Cauce","estado":"En Operación","tech":"Solar fotovoltaica","region":"Antofagasta","mw":9,"segmento":"PMGD","almac":"No","year":2022},{"lat":-37.08255,"lng":-72.02803,"nombre":"Parque Solar Pequén","estado":"En Construcción","tech":"Solar fotovoltaica","region":"Ñuble","mw":9,"segmento":"PMGD","almac":"No","year":2022},{"lat":-23.43746,"lng":-70.00635,"nombre":"Planta Fotovoltaica Ckontor","estado":"En Construcción","tech":"Solar fotovoltaica","region":"Antofagasta","mw":9,"segmento":"PMG","almac":"No","year":2022},{"lat":-33.18603,"lng":-70.7862,"nombre":"Planta Fotovoltaica El Manzano","estado":"En Construcción","tech":"Solar fotovoltaica","region":"Metropolitana","mw":9,"segmento":"PMGD","almac":"No","year":2022},{"lat":-35.52925,"lng":-71.66659,"nombre":"Planta Fotovoltaica Maule X","estado":"En Operación","tech":"Solar fotovoltaica","region":"Maule","mw":9,"segmento":"PMGD","almac":"No","year":2022},{"lat":-26.87057,"lng":-70.10608,"nombre":"Planta Fotovoltaica Travesía","estado":"En Construcción","tech":"Solar fotovoltaica","region":"Atacama","mw":9,"segmento":"PMG","almac":"No","year":2022},{"lat":-35.1607,"lng":-71.37462,"nombre":"PMG Itahue","estado":"En Construcción","tech":"Solar fotovoltaica","region":"Maule","mw":9,"segmento":"PMG","almac":"No","year":2022},{"lat":-33.81629,"lng":-71.55666,"nombre":"PMGD Chagual Solar","estado":"En Construcción","tech":"Solar fotovoltaica","region":"Metropolitana","mw":9,"segmento":"PMGD","almac":"No","year":2022},{"lat":-33.39041,"lng":-70.8447,"nombre":"PMGD Espejo","estado":"En Construcción","tech":"Solar fotovoltaica","region":"Metropolitana","mw":9,"segmento":"PMGD","almac":"No","year":2022},{"lat":-34.96452,"lng":-71.1581,"nombre":"PMGD FV Barcelona","estado":"En Operación","tech":"Solar fotovoltaica","region":"Maule","mw":9,"segmento":"PMGD","almac":"No","year":2022},{"lat":-33.80837,"lng":-71.53784,"nombre":"PMGD Lirio Solar","estado":"En Construcción","tech":"Solar fotovoltaica","region":"Metropolitana","mw":9,"segmento":"PMGD","almac":"No","year":2022},{"lat":-37.45689,"lng":-72.39118,"nombre":"PMGD María Dolores (Ex María Dolores IX)","estado":"En Operación","tech":"Solar fotovoltaica","region":"Biobío","mw":9,"segmento":"Utility Scale","almac":"No","year":2022},{"lat":-26.42513,"lng":-70.10415,"nombre":"Proyecto Fotovoltaico Diego de Almagro","estado":"En Construcción","tech":"Solar fotovoltaica","region":"Atacama","mw":9,"segmento":"PMGD","almac":"No","year":2022},{"lat":-26.41287,"lng":-70.10489,"nombre":"Proyecto Fotovoltaico Modificación Sierra Soleada","estado":"En Construcción","tech":"Solar fotovoltaica","region":"Atacama","mw":9,"segmento":"PMGD","almac":"No","year":2022},{"lat":-33.63653,"lng":-70.86876,"nombre":"Talagante 2","estado":"En Operación","tech":"Solar fotovoltaica","region":"Metropolitana","mw":9,"segmento":"PMGD","almac":"No","year":2022},{"lat":-37.50198,"lng":-72.27714,"nombre":"FV Santa Pamela","estado":"En Operación","tech":"Solar fotovoltaica","region":"Biobío","mw":7.7,"segmento":"Utility Scale","almac":"No","year":2022},{"lat":-33.66926,"lng":-70.98567,"nombre":"San Antonio del Monte Sunlight","estado":"En Operación","tech":"Solar fotovoltaica","region":"Metropolitana","mw":7.2,"segmento":"Utility Scale","almac":"No","year":2022},{"lat":-32.48581,"lng":-71.25746,"nombre":"Cóndor La Ligua II","estado":"En Operación","tech":"Solar fotovoltaica","region":"Valparaíso","mw":6,"segmento":"PMGD","almac":"No","year":2022},{"lat":-33.47382,"lng":-71.10966,"nombre":"Parque Fotovoltaico La Rosa de Sharon","estado":"En Operación","tech":"Solar fotovoltaica","region":"Metropolitana","mw":6,"segmento":"PMGD","almac":"No","year":2022},{"lat":-33.30853,"lng":-71.43965,"nombre":"PFV Viñas del Sol (Ex Manzano II)","estado":"En Operación","tech":"Solar fotovoltaica","region":"Valparaíso","mw":6,"segmento":"Utility Scale","almac":"No","year":2022},{"lat":-36.01694,"lng":-71.63187,"nombre":"Planta Fotovoltaica Ballota","estado":"En Construcción","tech":"Solar fotovoltaica","region":"Maule","mw":6,"segmento":"PMGD","almac":"No","year":2022},{"lat":-36.64535,"lng":-72.07888,"nombre":"Quilmo Solar","estado":"En Operación","tech":"Solar fotovoltaica","region":"Ñuble","mw":5.2,"segmento":"PMGD","almac":"No","year":2022},{"lat":-36.55121,"lng":-72.09836,"nombre":"Casa de Lata (Ex PMGD Elvira 7)","estado":"En Operación","tech":"Solar fotovoltaica","region":"Ñuble","mw":5,"segmento":"PMGD","almac":"No","year":2022},{"lat":-36.55121,"lng":-72.09836,"nombre":"Elvira (Ex PMGD Elvira 7b)","estado":"En Pruebas","tech":"Solar fotovoltaica","region":"Ñuble","mw":4,"segmento":"PMGD","almac":"No","year":2022},{"lat":-34.41008,"lng":-71.62959,"nombre":"Planta Fotovoltaica Yellowstone – Etapa 1","estado":"En Construcción","tech":"Solar fotovoltaica","region":"O’Higgins","mw":3.5,"segmento":"PMG","almac":"No","year":2022},{"lat":-34.41008,"lng":-71.62959,"nombre":"Planta Fotovoltaica Yellowstone – Etapa 2","estado":"En Construcción","tech":"Solar fotovoltaica","region":"O’Higgins","mw":3.5,"segmento":"PMG","almac":"No","year":2022},{"lat":-33,"lng":-71,"nombre":"Ampliación Marín (Ex PMGD Mauco II)","estado":"En Operación","tech":"Solar fotovoltaica","region":"Valparaíso","mw":3,"segmento":"PMGD","almac":"No","year":2022},{"lat":-33.82244,"lng":-70.60508,"nombre":"Gabardo Ampliación","estado":"En Operación","tech":"Solar fotovoltaica","region":"Metropolitana","mw":3,"segmento":"PMGD","almac":"No","year":2022},{"lat":-36.54196,"lng":-72.05611,"nombre":"Cato Solar","estado":"En Operación","tech":"Solar fotovoltaica","region":"Ñuble","mw":2.6,"segmento":"PMGD","almac":"No","year":2022},{"lat":-33.31941,"lng":-71.58397,"nombre":"Planta Fotovoltaica Alghero Solar","estado":"Aprobado","tech":"Solar fotovoltaica","region":"Valparaíso","mw":7.7,"segmento":"PMGD","almac":"Sí","year":2022},{"lat":-34.33594,"lng":-70.99443,"nombre":"PFV Romeral Solar","estado":"Aprobado","tech":"Solar fotovoltaica","region":"O’Higgins","mw":7.5,"segmento":"PMGD","almac":"No","year":2022},{"lat":-28.1096,"lng":-70.74772,"nombre":"Parque Fotovoltaico Sol de Vallenar","estado":"En Pruebas","tech":"Solar fotovoltaica","region":"Atacama","mw":100,"segmento":"Utility Scale","almac":"No","year":2022},{"lat":-30.15326,"lng":-71.19561,"nombre":"PMG Don Oscar Solar","estado":"En Operación","tech":"Solar fotovoltaica","region":"Coquimbo","mw":9.12,"segmento":"PMG","almac":"No","year":2022},{"lat":-34.90487,"lng":-71.1438,"nombre":"Amancay","estado":"En Construcción","tech":"Solar fotovoltaica","region":"Maule","mw":9,"segmento":"PMGD","almac":"No","year":2022},{"lat":-36.7328,"lng":-72.25902,"nombre":"Bulnes Solar","estado":"En Operación","tech":"Solar fotovoltaica","region":"Ñuble","mw":9,"segmento":"PMGD","almac":"No","year":2022},{"lat":-30.14191,"lng":-71.22873,"nombre":"Chercán Solar (Ex PMG Peñón Solar)","estado":"En Operación","tech":"Solar fotovoltaica","region":"Coquimbo","mw":9,"segmento":"PMG","almac":"No","year":2022},{"lat":-36.1232,"lng":-71.77935,"nombre":"Coihue","estado":"En Construcción","tech":"Solar fotovoltaica","region":"Maule","mw":9,"segmento":"PMGD","almac":"No","year":2022},{"lat":-36.16836,"lng":-71.84255,"nombre":"Frangel","estado":"En Construcción","tech":"Solar fotovoltaica","region":"Maule","mw":9,"segmento":"PMGD","almac":"No","year":2022},{"lat":-29.97516,"lng":-70.69554,"nombre":"Fundo San Isidro","estado":"En Construcción","tech":"Solar fotovoltaica","region":"Coquimbo","mw":9,"segmento":"PMGD","almac":"No","year":2022},{"lat":-34.23499,"lng":-70.80288,"nombre":"Los Lirios","estado":"En Operación","tech":"Solar fotovoltaica","region":"O’Higgins","mw":9,"segmento":"PMGD","almac":"No","year":2022},{"lat":-36.05109,"lng":-71.98854,"nombre":"Miracea","estado":"En Construcción","tech":"Solar fotovoltaica","region":"Maule","mw":9,"segmento":"PMGD","almac":"No","year":2022},{"lat":-37.64698,"lng":-72.28127,"nombre":"Mulchén Santa Bárbara 1","estado":"En Construcción","tech":"Solar fotovoltaica","region":"Biobío","mw":9,"segmento":"PMGD","almac":"No","year":2022},{"lat":-34.35273,"lng":-71.12967,"nombre":"Parque Solar San Vicente TT P1","estado":"En Operación","tech":"Solar fotovoltaica","region":"O’Higgins","mw":9,"segmento":"PMGD","almac":"No","year":2022},{"lat":-33.66263,"lng":-71.27251,"nombre":"Patagua (Ex Patagua XIII)","estado":"En Operación","tech":"Solar fotovoltaica","region":"Metropolitana","mw":9,"segmento":"PMGD","almac":"No","year":2022},{"lat":-27.28494,"lng":-70.40698,"nombre":"PFV Chamonate Solar (Ex PMGD Toledo Dos)","estado":"En Operación","tech":"Solar fotovoltaica","region":"Atacama","mw":9,"segmento":"PMGD","almac":"No","year":2022},{"lat":-33.73171,"lng":-70.90233,"nombre":"PFV Liebre del Verano","estado":"En Operación","tech":"Solar fotovoltaica","region":"Metropolitana","mw":9,"segmento":"PMGD","almac":"No","year":2022},{"lat":-35.58334,"lng":-71.54624,"nombre":"PMGD Cabimas","estado":"En Pruebas","tech":"Solar fotovoltaica","region":"Maule","mw":9,"segmento":"PMGD","almac":"No","year":2022},{"lat":-23.85252,"lng":-70.30657,"nombre":"PMGD Chungungo Solar","estado":"En Construcción","tech":"Solar fotovoltaica","region":"Antofagasta","mw":9,"segmento":"PMGD","almac":"No","year":2022},{"lat":-37.50683,"lng":-73.57625,"nombre":"PMGD Lebu Norte","estado":"En Construcción","tech":"Eólica","region":"Biobío","mw":9,"segmento":"PMGD","almac":"No","year":2022},{"lat":-39.32799,"lng":-72.50647,"nombre":"PMGD PFV Ancahual Solar (Ex Canelillo Solar)","estado":"En Operación","tech":"Solar fotovoltaica","region":"La Araucanía","mw":9,"segmento":"PMGD","almac":"No","year":2022},{"lat":-18.44028,"lng":-70.24669,"nombre":"PMGD PVP Chinchorro","estado":"En Operación","tech":"Solar fotovoltaica","region":"Arica y Parinacota","mw":9,"segmento":"PMGD","almac":"No","year":2022},{"lat":-27.3645,"lng":-70.19813,"nombre":"PMGD San Francisco","estado":"En Construcción","tech":"Solar fotovoltaica","region":"Atacama","mw":9,"segmento":"PMGD","almac":"No","year":2022},{"lat":-38.49951,"lng":-72.39822,"nombre":"PMGD Violeta Solar","estado":"En Construcción","tech":"Solar fotovoltaica","region":"La Araucanía","mw":9,"segmento":"PMGD","almac":"No","year":2022},{"lat":-34.44526,"lng":-70.93537,"nombre":"Puig Sunlight (Ex-Malloa Sunlight)","estado":"En Operación","tech":"Solar fotovoltaica","region":"O’Higgins","mw":9,"segmento":"PMGD","almac":"No","year":2022},{"lat":-34.92692,"lng":-71.15425,"nombre":"Quilvo","estado":"En Operación","tech":"Solar fotovoltaica","region":"Maule","mw":9,"segmento":"PMGD","almac":"No","year":2022},{"lat":-34.98427,"lng":-71.16525,"nombre":"Tarwi","estado":"En Construcción","tech":"Solar fotovoltaica","region":"Maule","mw":9,"segmento":"PMGD","almac":"No","year":2022},{"lat":-34.95658,"lng":-71.94766,"nombre":"Vichuquén Santa Elena","estado":"En Construcción","tech":"Solar fotovoltaica","region":"Maule","mw":9,"segmento":"PMGD","almac":"No","year":2022},{"lat":-34.24192,"lng":-70.92213,"nombre":"Lo Conty","estado":"En Operación","tech":"Solar fotovoltaica","region":"O’Higgins","mw":8.2,"segmento":"PMGD","almac":"No","year":2022},{"lat":-23.40646,"lng":-69.98408,"nombre":"PMGD Quebrada del Sol","estado":"En Construcción","tech":"Solar fotovoltaica","region":"Antofagasta","mw":7.6,"segmento":"PMGD","almac":"No","year":2022},{"lat":-34.20307,"lng":-70.67882,"nombre":"PMGD Parque Fotovoltaico Don Simón","estado":"En Operación","tech":"Solar fotovoltaica","region":"O’Higgins","mw":7,"segmento":"PMGD","almac":"No","year":2022},{"lat":-33.6703,"lng":-71.01189,"nombre":"Ampliación Monte","estado":"En Operación","tech":"Solar fotovoltaica","region":"Metropolitana","mw":6,"segmento":"PMGD","almac":"No","year":2022},{"lat":-37.1385,"lng":-72.09446,"nombre":"Los Banos (Ex Esmeralda 6)","estado":"En Operación","tech":"Solar fotovoltaica","region":"Ñuble","mw":6,"segmento":"PMGD","almac":"No","year":2022},{"lat":-33.33269,"lng":-70.90619,"nombre":"PMGD Viñedos","estado":"En Construcción","tech":"Solar fotovoltaica","region":"Metropolitana","mw":6,"segmento":"PMGD","almac":"No","year":2022},{"lat":-31.14205,"lng":-71.08883,"nombre":"Emilia Solar","estado":"En Operación","tech":"Solar fotovoltaica","region":"Coquimbo","mw":3.84,"segmento":"PMG","almac":"No","year":2022},{"lat":-35.82273,"lng":-71.65367,"nombre":"Ampliación Fotovolt LIN (Ex Fotovolt Linares II)","estado":"En Operación","tech":"Solar fotovoltaica","region":"Maule","mw":3,"segmento":"PMGD","almac":"No","year":2022},{"lat":-33.42896,"lng":-71.04685,"nombre":"Parque Fotovoltaico Valentina Solar","estado":"Aprobado","tech":"Solar fotovoltaica","region":"Metropolitana","mw":9,"segmento":"Utility Scale","almac":"No","year":2022},{"lat":-23.7435,"lng":-70.01511,"nombre":"Proyecto Parque Eólico Morros","estado":"Aprobado","tech":"Eólica","region":"Antofagasta","mw":192,"segmento":"Utility Scale","almac":"No","year":2022},{"lat":-33.24066,"lng":-70.91971,"nombre":"Dúcula Solar","estado":"Aprobado","tech":"Solar fotovoltaica","region":"Metropolitana","mw":9,"segmento":"Utility Scale","almac":"No","year":2022},{"lat":-29.12531,"lng":-70.91358,"nombre":"Planta Solar Fotovoltaica Michay","estado":"Aprobado","tech":"Solar fotovoltaica","region":"Atacama","mw":9,"segmento":"PMG","almac":"No","year":2022},{"lat":-24.01757,"lng":-68.58639,"nombre":"Andes IV","estado":"En Operación","tech":"Solar fotovoltaica","region":"Antofagasta","mw":129.72,"segmento":"Utility Scale","almac":"Sí","year":2022},{"lat":-36.74583,"lng":-72.26867,"nombre":"Alto del Sol (Ex Larqui Solar)","estado":"En Operación","tech":"Solar fotovoltaica","region":"Ñuble","mw":9,"segmento":"PMG","almac":"No","year":2022},